dep;nomdep;codecommune;nomcommune;GEO_latitude;GEO_longitude;DBL_geo_point_2d;DBL_coderegion;DBL_nomregion;DBL_bug
59;NORD;59416;MORBECQUE;50.67689342861573;2.536216144331492;50.67689342861573, 2.536216144331492;31;NORD-PAS-DE-CALAIS;0
31;HAUTE-GARONNE;31225;GOUTEVERNISSE;43.214026301449536;1.173765920286677;43.214026301449536, 1.173765920286677;73;MIDI-PYRENEES;0
23;CREUSE;23025;BONNAT;46.32301933418213;1.913450631364578;46.32301933418213, 1.913450631364578;74;LIMOUSIN;0
38;ISERE;38522;VALJOUFFREY;44.88153491127053;6.07950399615059;44.88153491127053, 6.07950399615059;82;RHONE-ALPES;0
21;"""COTE-D'OR""";21249;ESBARRES;47.091069454325485;5.198246639283228;47.091069454325485, 5.198246639283228;26;BOURGOGNE;0
62;PAS-DE-CALAIS;62893;WIMEREUX;50.77924978918239;1.613432313096119;50.77924978918239, 1.613432313096119;31;NORD-PAS-DE-CALAIS;0
60;OISE;60331;LABOSSE;49.35407816266846;1.898320236754994;49.35407816266846, 1.898320236754994;22;PICARDIE;0
62;PAS-DE-CALAIS;62625;NOYELLES-LES-HUMIERES;50.37542375047368;2.1773776418561592;50.37542375047368, 2.1773776418561592;31;NORD-PAS-DE-CALAIS;0
34;HERAULT;34277;SAINT-MAURICE-NAVACELLES;43.84487342385136;3.506265066900079;43.84487342385136, 3.506265066900079;91;LANGUEDOC-ROUSSILLON;0
45;LOIRET;45149;FOUCHEROLLES;48.09716912740733;3.0183707714031742;48.09716912740733, 3.0183707714031742;24;CENTRE;0
26;DROME;26176;MARSANNE;44.64027308196128;4.883113725963492;44.64027308196128, 4.883113725963492;82;RHONE-ALPES;0
51;MARNE;51130;CHARMONT;48.86910728112316;4.870499461015932;48.869107281123156, 4.870499461015932;21;CHAMPAGNE-ARDENNE;0
76;SEINE-MARITIME;76592;SAINT-JEAN-DE-FOLLEVILLE;49.505056753004965;0.499483150434799;49.505056753004965, 0.499483150434799;23;HAUTE-NORMANDIE;0
14;CALVADOS;14556;SAINT-ANDRE-SUR-ORNE;49.12440156254746;-0.388404822316026;49.12440156254746, -0.388404822316026;25;BASSE-NORMANDIE;0
61;ORNE;61411;SAINT-JOUIN-DE-BLAVOU;48.44868202508459;0.482333338299787;48.44868202508459, 0.48233333829978703;25;BASSE-NORMANDIE;0
07;ARDECHE;07060;CHATEAUNEUF-DE-VERNOUX;44.92492404782045;4.642191100324167;44.92492404782045, 4.642191100324167;82;RHONE-ALPES;0
10;AUBE;10196;LIGNIERES;47.95693729164738;3.96407269437861;47.95693729164738, 3.96407269437861;21;CHAMPAGNE-ARDENNE;0
68;HAUT-RHIN;68062;CARSPACH;47.622493539829264;7.195029847951468;47.622493539829264, 7.195029847951468;42;ALSACE;0
50;MANCHE;50345;MONTHUCHON;49.08817736254658;-1.4202346383721172;49.08817736254658, -1.4202346383721172;25;BASSE-NORMANDIE;0
03;ALLIER;03028;BILLEZOIS;46.20948267005192;3.576882652523172;46.20948267005192, 3.576882652523172;83;AUVERGNE;0
31;HAUTE-GARONNE;31317;MARIGNAC-LASCLARES;43.30498786470456;1.106620375823203;43.30498786470456, 1.106620375823203;73;MIDI-PYRENEES;0
42;LOIRE;42170;PERREUX;46.04048973608429;4.144919260882025;46.04048973608429, 4.144919260882025;82;RHONE-ALPES;0
34;HERAULT;34045;CABRIERES;43.57779731121372;3.348006075625786;43.577797311213715, 3.348006075625786;91;LANGUEDOC-ROUSSILLON;0
14;CALVADOS;14437;MONDEVILLE;49.16936493781647;-0.310691187417337;49.16936493781647, -0.31069118741733703;25;BASSE-NORMANDIE;0
56;MORBIHAN;56124;MALESTROIT;47.80768637880935;-2.387010725805915;47.80768637880935, -2.387010725805915;53;BRETAGNE;0
29;FINISTERE;29132;LOCQUENOLE;48.623479420099;-3.863473532675319;48.623479420098995, -3.863473532675319;53;BRETAGNE;0
85;VENDEE;85289;LA TARDIERE;46.66373743400396;-0.727562430214146;46.663737434003956, -0.727562430214146;52;PAYS DE LA LOIRE;0
51;MARNE;51422;PARGNY-LES-REIMS;49.21913705905693;3.921807305091723;49.21913705905693, 3.921807305091723;21;CHAMPAGNE-ARDENNE;0
46;LOT;46257;SAINT-CIRQ-MADELON;44.78969863807808;1.316852228380994;44.78969863807808, 1.316852228380994;73;MIDI-PYRENEES;0
41;LOIR-ET-CHER;41058;CONCRIERS;47.77773771438432;1.482518082874568;47.777737714384315, 1.482518082874568;24;CENTRE;0
02;AISNE;02366;HANNAPES;49.97711581037301;3.6144264223222633;49.97711581037301, 3.6144264223222633;22;PICARDIE;0
88;VOSGES;88378;REGNEY;48.2865730500126;6.307855922226566;48.2865730500126, 6.307855922226566;41;LORRAINE;0
02;AISNE;02378;LA HERIE;49.88382698815301;4.043606570518069;49.883826988153004, 4.043606570518069;22;PICARDIE;0
65;HAUTES-PYRENEES;65264;LASCAZERES;43.49812931917787;-0.028526449309559;43.49812931917787, -0.028526449309559002;73;MIDI-PYRENEES;0
02;AISNE;02211;CONDE-SUR-SUIPPE;49.41383703266813;3.944984490271521;49.41383703266813, 3.944984490271521;22;PICARDIE;0
37;INDRE-ET-LOIRE;37203;ROCHECORBON;47.4295541891264;0.7609196676951501;47.4295541891264, 0.7609196676951501;24;CENTRE;0
10;AUBE;10151;FONTAINE-LES-GRES;48.41283519619373;3.889105144084852;48.41283519619373, 3.8891051440848523;21;CHAMPAGNE-ARDENNE;0
67;BAS-RHIN;67427;SAINT-MAURICE;48.33292016164621;7.335272851457982;48.332920161646214, 7.335272851457982;42;ALSACE;0
25;DOUBS;25017;AMONDANS;47.07152928410012;6.035107687047449;47.07152928410012, 6.035107687047449;43;FRANCHE-COMTE;0
02;AISNE;02641;RENNEVAL;49.73917140193729;4.036741700660738;49.73917140193729, 4.036741700660738;22;PICARDIE;0
58;NIEVRE;58045;LA CELLE-SUR-NIEVRE;47.21862469898568;3.202260892409714;47.21862469898568, 3.202260892409714;26;BOURGOGNE;0
67;BAS-RHIN;67276;LUTZELHOUSE;48.53768427012003;7.24174255301525;48.53768427012003, 7.24174255301525;42;ALSACE;0
80;SOMME;80329;FORCEVILLE;50.066008765124565;2.555441238497868;50.066008765124565, 2.555441238497868;22;PICARDIE;0
06;ALPES-MARITIMES;06031;CANTARON;43.77120309985372;7.313168927283133;43.77120309985372, 7.313168927283133;93;"""PROVENCE-ALPES-COTE D'AZUR""";0
81;TARN;81024;BEAUVAIS-SUR-TESCOU;43.898151982312086;1.5716034750919912;43.898151982312086, 1.5716034750919912;73;MIDI-PYRENEES;0
52;HAUTE-MARNE;52526;VILLARS-SANTENOGE;47.74426865403712;4.99918998243774;47.744268654037114, 4.9991899824377395;21;CHAMPAGNE-ARDENNE;0
07;ARDECHE;07338;VERNOUX-EN-VIVARAIS;44.90515581676331;4.64438568730562;44.90515581676331, 4.64438568730562;82;RHONE-ALPES;0
09;ARIEGE;09169;LIMBRASSAC;43.01101047036936;1.843532399235547;43.01101047036936, 1.843532399235547;73;MIDI-PYRENEES;0
27;EURE;27663;LE TRONCQ;49.19288514543214;0.916869342267369;49.19288514543214, 0.916869342267369;23;HAUTE-NORMANDIE;0
77;SEINE-ET-MARNE;77128;COUILLY-PONT-AUX-DAMES;48.88166983746127;2.8653400028622302;48.88166983746127, 2.8653400028622302;11;ILE-DE-FRANCE;0
66;PYRENEES-ORIENTALES;66071;ESTAGEL;42.76773067544313;2.707541795529761;42.76773067544313, 2.707541795529761;91;LANGUEDOC-ROUSSILLON;0
47;LOT-ET-GARONNE;47215;PUJOLS;44.37054109592832;0.698420769964404;44.37054109592832, 0.698420769964404;72;AQUITAINE;0
01;AIN;01026;BAGE-LE-CHATEL;46.30770692311769;4.928620841885369;46.30770692311769, 4.928620841885369;82;RHONE-ALPES;0
36;INDRE;36046;LA CHATRE;46.57386170611147;1.991124689056831;46.57386170611147, 1.991124689056831;24;CENTRE;0
24;DORDOGNE;24028;BEAUMONT-DU-PERIGORD;44.77380125798995;0.7540962933099;44.77380125798995, 0.7540962933099;72;AQUITAINE;0
09;ARIEGE;09124;LE FOSSAT;43.17969078441221;1.415063573425289;43.17969078441221, 1.415063573425289;73;MIDI-PYRENEES;0
68;HAUT-RHIN;68113;GUEMAR;48.194168527133314;7.414750078293217;48.194168527133314, 7.414750078293217;42;ALSACE;0
64;PYRENEES-ATLANTIQUES;64052;ARRICAU-BORDES;43.50190520938678;-0.142484551875439;43.50190520938678, -0.14248455187543901;72;AQUITAINE;0
19;CORREZE;19118;LE LONZAC;45.469966322352775;1.731155034507681;45.469966322352775, 1.731155034507681;74;LIMOUSIN;0
02;AISNE;02160;CHAOURSE;49.70078981155206;3.985622922812507;49.70078981155206, 3.985622922812507;22;PICARDIE;0
89;YONNE;89334;SAINT-AUBIN-CHATEAU-NEUF;47.82144732626303;3.290483357430294;47.821447326263026, 3.290483357430294;26;BOURGOGNE;0
11;AUDE;11019;AUNAT;42.78899329386997;2.100487274266931;42.78899329386997, 2.100487274266931;91;LANGUEDOC-ROUSSILLON;0
40;LANDES;40162;LUCBARDEZ-ET-BARGUES;43.97497864980727;-0.410271763084914;43.97497864980727, -0.41027176308491403;72;AQUITAINE;0
46;LOT;46208;MONTVALENT;44.87406843329873;1.6355576928643432;44.87406843329873, 1.6355576928643432;73;MIDI-PYRENEES;0
60;OISE;60538;RICQUEBOURG;49.56068083444983;2.758292518407658;49.560680834449826, 2.758292518407658;22;PICARDIE;0
68;HAUT-RHIN;68357;WALTENHEIM;47.65561655239746;7.422890707267546;47.65561655239746, 7.422890707267546;42;ALSACE;0
03;ALLIER;03282;THENEUILLE;46.58749055596518;2.8799454590320592;46.58749055596518, 2.8799454590320592;83;AUVERGNE;0
85;VENDEE;85121;LE LANGON;46.43931190393441;-0.947017086150998;46.43931190393441, -0.9470170861509981;52;PAYS DE LA LOIRE;0
60;OISE;60685;VILLERS-SAINT-SEPULCRE;49.36895088067666;2.209252158728257;49.36895088067666, 2.209252158728257;22;PICARDIE;0
40;LANDES;40240;RENUNG;43.74677968212979;-0.368876062065978;43.74677968212979, -0.368876062065978;72;AQUITAINE;0
41;LOIR-ET-CHER;41127;LA MAROLLE-EN-SOLOGNE;47.582983248690624;1.788919074924564;47.582983248690624, 1.788919074924564;24;CENTRE;0
28;EURE-ET-LOIR;28166;FRIAIZE;48.42990345297603;1.12215343235798;48.42990345297603, 1.12215343235798;24;CENTRE;0
73;SAVOIE;73273;SAINT-PIERRE-DE-CURTILLE;45.76549774447517;5.828877757211796;45.76549774447517, 5.828877757211796;82;RHONE-ALPES;0
88;VOSGES;88015;ATTIGNEVILLE;48.39777972995456;5.827512184699397;48.39777972995456, 5.827512184699397;41;LORRAINE;0
48;LOZERE;48034;LA CANOURGUE;44.41937117693942;3.257118276274177;44.41937117693942, 3.257118276274177;91;LANGUEDOC-ROUSSILLON;0
31;HAUTE-GARONNE;31340;MERVILLA;43.50633055702877;1.47317310348059;43.50633055702877, 1.47317310348059;73;MIDI-PYRENEES;0
59;NORD;59670;DON;50.54404898108235;2.915578097686276;50.54404898108235, 2.915578097686276;31;NORD-PAS-DE-CALAIS;0
27;EURE;27403;LE MESNIL-JOURDAIN;49.18153346026998;1.127631852846701;49.18153346026998, 1.127631852846701;23;HAUTE-NORMANDIE;0
74;HAUTE-SAVOIE;74205;ONNION;46.18169242839481;6.498698065707903;46.18169242839481, 6.498698065707903;82;RHONE-ALPES;0
52;HAUTE-MARNE;52300;MAGNEUX;48.509635452162726;5.007762530245237;48.509635452162726, 5.007762530245237;21;CHAMPAGNE-ARDENNE;0
08;ARDENNES;08046;BANOGNE-RECOUVRANCE;49.57026095865495;4.132470643434385;49.57026095865495, 4.132470643434385;21;CHAMPAGNE-ARDENNE;0
02;AISNE;02198;CLAMECY;49.42810778250503;3.363787547873454;49.42810778250503, 3.363787547873454;22;PICARDIE;0
43;HAUTE-LOIRE;43004;ALLEYRAC;44.89448152217895;3.989150093848763;44.89448152217895, 3.989150093848763;83;AUVERGNE;0
43;HAUTE-LOIRE;43072;LA CHOMETTE;45.22773086379821;3.467273385213282;45.22773086379821, 3.467273385213282;83;AUVERGNE;0
79;DEUX-SEVRES;79306;SAURAIS;46.62355612654675;-0.135209285165747;46.62355612654675, -0.135209285165747;54;POITOU-CHARENTES;0
93;SEINE-SAINT-DENIS;93008;BOBIGNY;48.90768824395576;2.438639827268387;48.907688243955754, 2.438639827268387;11;ILE-DE-FRANCE;0
71;SAONE-ET-LOIRE;71371;LA ROCHE-VINEUSE;46.35102359147507;4.74854768421996;46.35102359147507, 4.74854768421996;26;BOURGOGNE;0
35;ILLE-ET-VILAINE;35299;SAINT-MELOIR-DES-ONDES;48.63871254376054;-1.905176128029636;48.63871254376054, -1.9051761280296362;53;BRETAGNE;0
69;RHONE;69192;SAINT-CYR-LE-CHATOUX;46.0314296951772;4.538652675315813;46.0314296951772, 4.538652675315813;82;RHONE-ALPES;0
63;PUY-DE-DOME;63383;SAINT-PIERRE-COLAMINE;45.51430287531183;2.974742042579712;45.51430287531183, 2.974742042579712;83;AUVERGNE;0
68;HAUT-RHIN;68246;OBERSAASHEIM;47.98612333027035;7.556752143748467;47.98612333027035, 7.556752143748467;42;ALSACE;0
48;LOZERE;48086;LUC;44.636687585109904;3.86550888828663;44.636687585109904, 3.86550888828663;91;LANGUEDOC-ROUSSILLON;0
10;AUBE;10270;ONJON;48.39878609245362;4.275798225310908;48.39878609245362, 4.275798225310908;21;CHAMPAGNE-ARDENNE;0
78;YVELINES;78505;PRUNAY-LE-TEMPLE;48.85928981427914;1.671301146657966;48.859289814279144, 1.671301146657966;11;ILE-DE-FRANCE;0
35;ILLE-ET-VILAINE;35289;SAINT-MALO-DE-PHILY;47.8681860686914;-1.80518886356619;47.8681860686914, -1.80518886356619;53;BRETAGNE;0
50;MANCHE;50278;LE LOREUR;48.86409114912047;-1.423962941057084;48.86409114912047, -1.423962941057084;25;BASSE-NORMANDIE;0
42;LOIRE;42311;LA TOUR-EN-JAREZ;45.488352827849546;4.39780519433158;45.488352827849546, 4.39780519433158;82;RHONE-ALPES;0
63;PUY-DE-DOME;63181;JOZERAND;46.024849858105554;3.098945730112754;46.024849858105554, 3.098945730112754;83;AUVERGNE;0
64;PYRENEES-ATLANTIQUES;64236;GAYON;43.48536612928234;-0.165938339941442;43.48536612928234, -0.16593833994144203;72;AQUITAINE;0
29;FINISTERE;29013;BOTMEUR;48.376228104665095;-3.922756135949536;48.376228104665095, -3.922756135949536;53;BRETAGNE;0
85;VENDEE;85093;FOUGERE;46.661788191148425;-1.23612691916349;46.661788191148425, -1.23612691916349;52;PAYS DE LA LOIRE;0
73;SAVOIE;73220;SAINT-ALBAN-DES-HURTIERES;45.46847940143395;6.249102657739354;45.46847940143395, 6.249102657739354;82;RHONE-ALPES;0
37;INDRE-ET-LOIRE;37119;L'ILE-BOUCHARD;47.12286718213039;0.423044659345053;47.122867182130385, 0.42304465934505303;24;CENTRE;0
80;SOMME;80500;MAISNIERES;50.01464703581707;1.609177065101918;50.01464703581707, 1.609177065101918;22;PICARDIE;0
47;LOT-ET-GARONNE;47041;BRUCH;44.20662794999824;0.405442754422703;44.206627949998236, 0.40544275442270306;72;AQUITAINE;0
55;MEUSE;55224;HAIRONVILLE;48.68780117778307;5.090267372967953;48.68780117778307, 5.090267372967953;41;LORRAINE;0
21;"""COTE-D'OR""";21126;CESSEY-SUR-TILLE;47.28268943629658;5.229258642323201;47.28268943629658, 5.229258642323201;26;BOURGOGNE;0
19;CORREZE;19134;MERLINES;45.62534247047953;2.458441930743469;45.62534247047953, 2.458441930743469;74;LIMOUSIN;0
11;AUDE;11408;VERZEILLE;43.12020070280483;2.328607362724086;43.12020070280483, 2.328607362724086;91;LANGUEDOC-ROUSSILLON;0
35;ILLE-ET-VILAINE;35120;GEVEZE;48.21332547046405;-1.799307035745108;48.21332547046405, -1.799307035745108;53;BRETAGNE;0
41;LOIR-ET-CHER;41175;PEZOU;47.86829936009502;1.146336340683068;47.86829936009502, 1.146336340683068;24;CENTRE;0
71;SAONE-ET-LOIRE;71120;CHAUFFAILLES;46.20658280647976;4.341739890825143;46.20658280647976, 4.341739890825143;26;BOURGOGNE;0
24;DORDOGNE;24215;JAYAC;45.029901005912734;1.351511797395471;45.029901005912734, 1.351511797395471;72;AQUITAINE;0
59;NORD;59443;OCHTEZEELE;50.8191546723867;2.400522573124648;50.8191546723867, 2.400522573124648;31;NORD-PAS-DE-CALAIS;0
79;DEUX-SEVRES;79063;CERSAY;47.06011001166617;-0.363929799149747;47.06011001166617, -0.36392979914974705;54;POITOU-CHARENTES;0
71;SAONE-ET-LOIRE;71159;CULLES-LES-ROCHES;46.64511715650676;4.652617860186278;46.64511715650676, 4.652617860186278;26;BOURGOGNE;0
31;HAUTE-GARONNE;31299;LHERM;43.4293377218233;1.223342365936779;43.4293377218233, 1.223342365936779;73;MIDI-PYRENEES;0
57;MOSELLE;57134;CHATEL-SAINT-GERMAIN;49.13175670285002;6.065855067502412;49.13175670285002, 6.065855067502412;41;LORRAINE;0
35;ILLE-ET-VILAINE;35121;GOSNE;48.25035238950932;-1.458608535951842;48.25035238950932, -1.458608535951842;53;BRETAGNE;0
21;"""COTE-D'OR""";21363;MAGNIEN;47.10945563449591;4.4333121413760574;47.10945563449591, 4.4333121413760574;26;BOURGOGNE;0
01;AIN;01027;BALAN;45.83112264529484;5.107800192488488;45.83112264529484, 5.107800192488488;82;RHONE-ALPES;0
57;MOSELLE;57484;MORSBACH;49.16736046495092;6.866590029829075;49.16736046495092, 6.866590029829075;41;LORRAINE;0
25;DOUBS;25258;FRANOIS;47.22536160689533;5.924971617990276;47.22536160689533, 5.924971617990276;43;FRANCHE-COMTE;0
02;AISNE;02734;TAILLEFONTAINE;49.3099328056186;3.049625390560698;49.3099328056186, 3.049625390560698;22;PICARDIE;0
88;VOSGES;88172;FIMENIL;48.17491572779263;6.707862201960354;48.17491572779263, 6.707862201960354;41;LORRAINE;0
16;CHARENTE;16012;ANGEAC-CHAMPAGNE;45.61375595062757;-0.289585740497744;45.613755950627564, -0.28958574049774405;54;POITOU-CHARENTES;0
02;AISNE;02679;SAINT-GENGOULPH;49.11894991258129;3.215266760333265;49.11894991258129, 3.215266760333265;22;PICARDIE;0
68;HAUT-RHIN;68040;BITSCHWILLER-LES-THANN;47.826849302936616;7.06896787478578;47.826849302936616, 7.06896787478578;42;ALSACE;0
55;MEUSE;55509;THONNE-LE-THIL;49.57178924649408;5.340898298164434;49.57178924649408, 5.340898298164434;41;LORRAINE;0
51;MARNE;51008;AMBRIERES;48.62900313496606;4.829237014747124;48.62900313496606, 4.8292370147471235;21;CHAMPAGNE-ARDENNE;0
32;GERS;32465;VILLEFRANCHE;43.421425055714494;0.7340342190470851;43.421425055714494, 0.7340342190470851;73;MIDI-PYRENEES;0
42;LOIRE;42339;CHAUSSETERRE;45.90151685262919;3.770917853067002;45.90151685262919, 3.7709178530670022;82;RHONE-ALPES;0
24;DORDOGNE;24109;LA CHAPELLE-GRESIGNAC;45.38963528059799;0.33934711565171;45.389635280597986, 0.33934711565171005;72;AQUITAINE;0
76;SEINE-MARITIME;76504;PLEINE-SEVE;49.81927649124112;0.752574707374413;49.81927649124112, 0.752574707374413;23;HAUTE-NORMANDIE;0
88;VOSGES;88147;DOMMARTIN-AUX-BOIS;48.15029318215893;6.289629147305715;48.15029318215893, 6.289629147305715;41;LORRAINE;0
24;DORDOGNE;24038;BERTRIC-BUREE;45.30905145701314;0.354531985356108;45.30905145701314, 0.354531985356108;72;AQUITAINE;0
71;SAONE-ET-LOIRE;71221;GIVRY;46.77021227254419;4.754414969924133;46.77021227254419, 4.754414969924133;26;BOURGOGNE;0
21;"""COTE-D'OR""";21396;MAUVILLY;47.70966664653746;4.704285494271253;47.709666646537464, 4.704285494271253;26;BOURGOGNE;0
71;SAONE-ET-LOIRE;71326;MOUTHIER-EN-BRESSE;46.86380751347482;5.380606732951921;46.86380751347482, 5.380606732951921;26;BOURGOGNE;0
63;PUY-DE-DOME;63392;SAINT-REMY-DE-CHARGNAT;45.50958515386208;3.325232439307242;45.509585153862076, 3.325232439307242;83;AUVERGNE;0
34;HERAULT;34236;ROUET;43.825879295769816;3.815941156770867;43.825879295769816, 3.815941156770867;91;LANGUEDOC-ROUSSILLON;0
33;GIRONDE;33276;MASSEILLES;44.40259460019039;-0.059264145636305;44.40259460019039, -0.059264145636305006;72;AQUITAINE;0
12;AVEYRON;12027;BESSUEJOULS;44.51984217805289;2.716685780056777;44.51984217805289, 2.716685780056777;73;MIDI-PYRENEES;0
52;HAUTE-MARNE;52156;CUREL;48.49821101437608;5.146262388247414;48.498211014376075, 5.146262388247414;21;CHAMPAGNE-ARDENNE;0
26;DROME;26069;CHAMALOC;44.81194558123466;5.385659498545414;44.81194558123466, 5.385659498545414;82;RHONE-ALPES;0
08;ARDENNES;08481;VILLERS-SUR-BAR;49.68178202932548;4.855142290573609;49.68178202932548, 4.855142290573609;21;CHAMPAGNE-ARDENNE;0
60;OISE;60570;SAINT-CREPIN-IBOUVILLERS;49.25925286448874;2.067731364574541;49.25925286448874, 2.067731364574541;22;PICARDIE;0
76;SEINE-MARITIME;76115;BOLLEVILLE;49.602833520538354;0.563968438854332;49.602833520538354, 0.563968438854332;23;HAUTE-NORMANDIE;0
35;ILLE-ET-VILAINE;35010;BAGUER-PICAN;48.55000947033104;-1.691204162846813;48.550009470331034, -1.691204162846813;53;BRETAGNE;0
41;LOIR-ET-CHER;41241;SELLES-SAINT-DENIS;47.37577810532832;1.906558966657729;47.37577810532832, 1.906558966657729;24;CENTRE;0
03;ALLIER;03239;SAINT-LEGER-SUR-VOUZANCE;46.40920219060057;3.937255077172566;46.40920219060057, 3.937255077172566;83;AUVERGNE;0
26;DROME;26259;RATIERES;45.17507785921376;4.97082735127296;45.17507785921376, 4.97082735127296;82;RHONE-ALPES;0
16;CHARENTE;16145;FOUSSIGNAC;45.712745125218085;-0.125082004292789;45.712745125218085, -0.125082004292789;54;POITOU-CHARENTES;0
17;CHARENTE-MARITIME;17174;GENOUILLE;46.01903216326237;-0.782334091478313;46.019032163262374, -0.782334091478313;54;POITOU-CHARENTES;0
09;ARIEGE;09319;UNZENT;43.17138409959965;1.5329441924292242;43.17138409959965, 1.5329441924292242;73;MIDI-PYRENEES;0
19;CORREZE;19113;LIGINIAC;45.40503584599532;2.323437811747996;45.40503584599532, 2.323437811747996;74;LIMOUSIN;0
28;EURE-ET-LOIR;28233;MARBOUE;48.1196433379216;1.307760719565636;48.119643337921595, 1.307760719565636;24;CENTRE;0
40;LANDES;40157;LIT-ET-MIXE;44.02000726780901;-1.276065451496614;44.02000726780901, -1.276065451496614;72;AQUITAINE;0
62;PAS-DE-CALAIS;62522;LOISON-SUR-CREQUOISE;50.44497009959139;1.919091841507585;50.44497009959139, 1.919091841507585;31;NORD-PAS-DE-CALAIS;0
57;MOSELLE;57003;ABRESCHVILLER;48.6015720299811;7.155766860527485;48.6015720299811, 7.155766860527485;41;LORRAINE;0
60;OISE;60660;LE VAUMAIN;49.34256327626184;1.865781147207637;49.34256327626184, 1.865781147207637;22;PICARDIE;0
18;CHER;18063;CHAVANNES;46.86393643249908;2.401657140202229;46.86393643249908, 2.401657140202229;24;CENTRE;0
12;AVEYRON;12007;AMBEYRAC;44.49435349568203;1.9357162856995;44.49435349568203, 1.9357162856995;73;MIDI-PYRENEES;0
08;ARDENNES;08244;LAMETZ;49.5265430661522;4.689026293943488;49.5265430661522, 4.689026293943488;21;CHAMPAGNE-ARDENNE;0
28;EURE-ET-LOIR;28025;BARMAINVILLE;48.25902896104504;1.954738455967281;48.25902896104504, 1.9547384559672811;24;CENTRE;0
77;SEINE-ET-MARNE;77204;GERMIGNY-SOUS-COULOMBS;49.06439549290524;3.161414639163483;49.06439549290524, 3.161414639163483;11;ILE-DE-FRANCE;0
76;SEINE-MARITIME;76517;QUINCAMPOIX;49.52061442761709;1.177793869861411;49.52061442761709, 1.177793869861411;23;HAUTE-NORMANDIE;0
09;ARIEGE;09022;ARVIGNA;43.05924694581106;1.728680949665436;43.05924694581106, 1.728680949665436;73;MIDI-PYRENEES;0
53;MAYENNE;53223;SAINT-GERMAIN-DE-COULAMER;48.26774885684911;-0.185983201964622;48.26774885684911, -0.185983201964622;52;PAYS DE LA LOIRE;0
72;SARTHE;72249;LA QUINTE;48.05113433654422;0.042039119863419;48.05113433654422, 0.042039119863419;52;PAYS DE LA LOIRE;0
39;JURA;39178;CRANS;46.695133952242585;5.981299312857313;46.695133952242585, 5.981299312857313;43;FRANCHE-COMTE;0
30;GARD;30085;COLLIAS;43.94905222770035;4.47176606244237;43.94905222770035, 4.47176606244237;91;LANGUEDOC-ROUSSILLON;0
86;VIENNE;86172;MOUTERRE-SUR-BLOURDE;46.21650660303913;0.768458601228007;46.21650660303913, 0.768458601228007;54;POITOU-CHARENTES;0
68;HAUT-RHIN;68353;WAHLBACH;47.6297810488386;7.346456167349213;47.6297810488386, 7.3464561673492135;42;ALSACE;0
38;ISERE;38160;EYZIN-PINET;45.47810673254067;4.998207286021189;45.47810673254067, 4.998207286021189;82;RHONE-ALPES;0
50;MANCHE;50476;SAINT-GERMAIN-D'ELLE;49.11977551584411;-0.9208567374334112;49.11977551584411, -0.9208567374334111;25;BASSE-NORMANDIE;0
36;INDRE;36012;BARAIZE;46.48085496598538;1.570280161373705;46.48085496598538, 1.570280161373705;24;CENTRE;0
38;ISERE;38093;CHATENAY;45.32946985569597;5.229274586385227;45.32946985569597, 5.229274586385227;82;RHONE-ALPES;0
95;"""VAL-D'OISE""";95241;FONTENAY-EN-PARISIS;49.05011966308222;2.445393719277551;49.05011966308222, 2.445393719277551;11;ILE-DE-FRANCE;0
50;MANCHE;50199;GENETS;48.689166732118544;-1.473540126707201;48.689166732118544, -1.473540126707201;25;BASSE-NORMANDIE;0
57;MOSELLE;57761;ZILLING;48.78672668220193;7.210302135771753;48.78672668220193, 7.210302135771753;41;LORRAINE;0
54;MEURTHE-ET-MOSELLE;54474;SAINTE-GENEVIEVE;48.87022435823508;6.137155485127018;48.87022435823508, 6.137155485127018;41;LORRAINE;0
55;MEUSE;55398;PAGNY-SUR-MEUSE;48.689220839656265;5.732988182443182;48.689220839656265, 5.732988182443182;41;LORRAINE;0
66;PYRENEES-ORIENTALES;66220;VALCEBOLLERE;42.38033536334366;2.043025558251862;42.38033536334366, 2.043025558251862;91;LANGUEDOC-ROUSSILLON;0
85;VENDEE;85284;SOULLANS;46.7951288466333;-1.913926994573763;46.7951288466333, -1.913926994573763;52;PAYS DE LA LOIRE;0
65;HAUTES-PYRENEES;65047;AUREILHAN;43.249703050342376;0.103640168514808;43.249703050342376, 0.103640168514808;73;MIDI-PYRENEES;0
16;CHARENTE;16016;ANSAC-SUR-VIENNE;45.99430297144259;0.6197303343252031;45.99430297144259, 0.6197303343252031;54;POITOU-CHARENTES;0
94;VAL-DE-MARNE;94018;CHARENTON-LE-PONT;48.82280849782191;2.407609154768574;48.82280849782191, 2.407609154768574;11;ILE-DE-FRANCE;0
54;MEURTHE-ET-MOSELLE;54360;MENIL-LA-TOUR;48.77416972282687;5.847636596643438;48.77416972282687, 5.847636596643438;41;LORRAINE;0
73;SAVOIE;73149;LUCEY;45.761052556055546;5.794152140788073;45.761052556055546, 5.794152140788073;82;RHONE-ALPES;0
23;CREUSE;23036;BUSSIERE-DUNOISE;46.25575637374649;1.7602899550591382;46.25575637374649, 1.7602899550591382;74;LIMOUSIN;0
82;TARN-ET-GARONNE;82077;LABARTHE;44.209162496312864;1.3168941592703831;44.209162496312864, 1.3168941592703831;73;MIDI-PYRENEES;0
55;MEUSE;55364;MOUZAY;49.44976597825734;5.239338786425538;49.44976597825734, 5.239338786425538;41;LORRAINE;0
65;HAUTES-PYRENEES;65111;BULAN;43.04323278404608;0.279721330275449;43.04323278404608, 0.27972133027544904;73;MIDI-PYRENEES;0
33;GIRONDE;33271;MARIONS;44.37394988169906;-0.08943654636956;44.37394988169906, -0.08943654636956001;72;AQUITAINE;0
31;HAUTE-GARONNE;31404;OO;42.74172859243348;0.496415293313429;42.741728592433475, 0.49641529331342904;73;MIDI-PYRENEES;0
62;PAS-DE-CALAIS;62597;MOYENNEVILLE;50.1799294808225;2.7714156816268822;50.1799294808225, 2.7714156816268822;31;NORD-PAS-DE-CALAIS;0
67;BAS-RHIN;67308;MUNCHHAUSEN;48.91493781376781;8.145013721745183;48.914937813767814, 8.145013721745183;42;ALSACE;0
14;CALVADOS;14149;CESNY-AUX-VIGNES;49.08629305696527;-0.120979196134707;49.08629305696527, -0.120979196134707;25;BASSE-NORMANDIE;0
18;CHER;18073;CORQUOY;46.8920009793618;2.297462167071525;46.8920009793618, 2.297462167071525;24;CENTRE;0
85;VENDEE;85033;BOURNEAU;46.54768829219124;-0.8138380202646041;46.54768829219124, -0.8138380202646041;52;PAYS DE LA LOIRE;0
29;FINISTERE;29261;SAINT-RIVOAL;48.349531038166525;-3.988188240294492;48.349531038166525, -3.988188240294492;53;BRETAGNE;0
29;FINISTERE;29086;IRVILLAC;48.36684542469873;-4.201637709750602;48.36684542469873, -4.201637709750602;53;BRETAGNE;0
16;CHARENTE;16169;JAVREZAC;45.70299834480741;-0.363647705405481;45.70299834480741, -0.363647705405481;54;POITOU-CHARENTES;0
51;MARNE;51060;BIGNICOURT-SUR-SAULX;48.75577186596757;4.787402258955416;48.75577186596757, 4.7874022589554155;21;CHAMPAGNE-ARDENNE;0
2A;CORSE-DU-SUD;2A284;SOLLACARO;41.74177109389176;8.880103829893013;41.74177109389176, 8.880103829893013;94;CORSE;0
74;HAUTE-SAVOIE;74050;BURDIGNIN;46.2324473826152;6.426044098529942;46.2324473826152, 6.426044098529942;82;RHONE-ALPES;0
26;DROME;26337;SAULCE-SUR-RHONE;44.70424061341442;4.790847116326444;44.70424061341442, 4.790847116326444;82;RHONE-ALPES;0
69;RHONE;69260;VERNAISON;45.64938990657274;4.809305207379917;45.64938990657274, 4.809305207379917;82;RHONE-ALPES;0
24;DORDOGNE;24316;PARCOUL;45.19152249916974;0.035623085050731;45.19152249916974, 0.035623085050731;72;AQUITAINE;0
89;YONNE;89415;THORY;47.571024012789806;3.9164346682631663;47.571024012789806, 3.9164346682631663;26;BOURGOGNE;0
86;VIENNE;86096;DOUSSAY;46.8397507342568;0.272341235914521;46.8397507342568, 0.27234123591452103;54;POITOU-CHARENTES;0
14;CALVADOS;14087;BONNOEIL;48.92250538111958;-0.365681421590136;48.92250538111958, -0.365681421590136;25;BASSE-NORMANDIE;0
67;BAS-RHIN;67059;BOURG-BRUCHE;48.35876831204653;7.143716962998289;48.35876831204653, 7.143716962998289;42;ALSACE;0
31;HAUTE-GARONNE;31358;MONTASTRUC-LA-CONSEILLERE;43.72212347649924;1.589064338357382;43.72212347649924, 1.5890643383573821;73;MIDI-PYRENEES;0
45;LOIRET;45156;GIROLLES;48.07245802969652;2.717677354280735;48.07245802969652, 2.717677354280735;24;CENTRE;0
15;CANTAL;15101;LAVEISSIERE;45.10352293750453;2.782850345793248;45.10352293750453, 2.782850345793248;83;AUVERGNE;0
85;VENDEE;85198;SAINT-AUBIN-DES-ORMEAUX;46.99581755970102;-1.04216568722349;46.99581755970102, -1.04216568722349;52;PAYS DE LA LOIRE;0
15;CANTAL;15126;MOLEDES;45.2669112637172;3.042925365888069;45.2669112637172, 3.042925365888069;83;AUVERGNE;0
01;AIN;01008;AMBUTRIX;45.93671345243573;5.332809234904155;45.93671345243573, 5.332809234904155;82;RHONE-ALPES;0
16;CHARENTE;16144;FOUQUEURE;45.88471495491083;0.075657786543712;45.88471495491083, 0.07565778654371201;54;POITOU-CHARENTES;0
54;MEURTHE-ET-MOSELLE;54270;HUSSIGNY-GODBRANGE;49.49552161636087;5.8561452559174665;49.49552161636087, 5.8561452559174665;41;LORRAINE;0
88;VOSGES;88529;XARONVAL;48.37206294516564;6.186675513866978;48.37206294516564, 6.1866755138669784;41;LORRAINE;0
57;MOSELLE;57287;BASSE-HAM;49.3759973873454;6.238634742222673;49.3759973873454, 6.238634742222673;41;LORRAINE;0
82;TARN-ET-GARONNE;82184;VAISSAC;44.031662490978576;1.570659298532041;44.031662490978576, 1.570659298532041;73;MIDI-PYRENEES;0
24;DORDOGNE;24498;SAINT-SAUD-LACOUSSIERE;45.53650826882596;0.839648874582645;45.53650826882596, 0.839648874582645;72;AQUITAINE;0
61;ORNE;61448;SAINT-PIERRE-LA-BRUYERE;48.35901525001314;0.799156524402971;48.35901525001314, 0.799156524402971;25;BASSE-NORMANDIE;0
62;PAS-DE-CALAIS;62786;SELLES;50.695942848558246;1.889643478470473;50.695942848558246, 1.889643478470473;31;NORD-PAS-DE-CALAIS;0
04;ALPES-DE-HAUTE-PROVENCE;04171;ROUGON;43.796659480164166;6.393181451283124;43.796659480164166, 6.393181451283124;93;"""PROVENCE-ALPES-COTE D'AZUR""";0
86;VIENNE;86061;CHARROUX;46.140322622185806;0.415210425844723;46.140322622185806, 0.415210425844723;54;POITOU-CHARENTES;0
76;SEINE-MARITIME;76398;LOUVETOT;49.5727111010783;0.7233677738603851;49.5727111010783, 0.7233677738603851;23;HAUTE-NORMANDIE;0
64;PYRENEES-ATLANTIQUES;64322;LASSE;43.13572911493611;-1.283005420313548;43.13572911493611, -1.2830054203135481;72;AQUITAINE;0
12;AVEYRON;12023;LA BASTIDE-SOLAGES;43.94997808672344;2.524844214662686;43.94997808672344, 2.524844214662686;73;MIDI-PYRENEES;0
21;"""COTE-D'OR""";21394;MASSINGY-LES-SEMUR;47.516458508444046;4.405675952978326;47.516458508444046, 4.405675952978326;26;BOURGOGNE;0
67;BAS-RHIN;67063;BREITENBACH;48.37450970698913;7.287081609630874;48.37450970698913, 7.287081609630874;42;ALSACE;0
49;MAINE-ET-LOIRE;49138;FONTAINE-GUERIN;47.48291677890213;-0.174198642478565;47.48291677890213, -0.174198642478565;52;PAYS DE LA LOIRE;0
81;TARN;81278;SAUVETERRE;43.45361677258981;2.559913467325392;43.453616772589804, 2.559913467325392;73;MIDI-PYRENEES;0
2A;CORSE-DU-SUD;2A004;AJACCIO;41.93479266376617;8.701322759741174;41.93479266376617, 8.701322759741174;94;CORSE;0
64;PYRENEES-ATLANTIQUES;64423;ORAAS;43.43537519174297;-0.9659284757126072;43.43537519174297, -0.9659284757126071;72;AQUITAINE;0
86;VIENNE;86202;LA PUYE;46.64714282382946;0.745621548258047;46.64714282382946, 0.745621548258047;54;POITOU-CHARENTES;0
59;NORD;59118;BUSIGNY;50.037597986773285;3.466029654432823;50.037597986773285, 3.466029654432823;31;NORD-PAS-DE-CALAIS;0
62;PAS-DE-CALAIS;62836;VAUDRICOURT;50.499601272842135;2.6187765662312312;50.499601272842135, 2.6187765662312312;31;NORD-PAS-DE-CALAIS;0
64;PYRENEES-ATLANTIQUES;64082;AUTERRIVE;43.46552376505133;-1.009251536466714;43.46552376505133, -1.009251536466714;72;AQUITAINE;0
23;CREUSE;23154;PIONNAT;46.17003875233629;2.026539412782974;46.17003875233629, 2.026539412782974;74;LIMOUSIN;0
09;ARIEGE;09157;LAROQUE-D'OLMES;42.96756232464821;1.871816029636262;42.96756232464821, 1.871816029636262;73;MIDI-PYRENEES;0
09;ARIEGE;09041;LA BASTIDE-DU-SALAT;43.06148722135103;1.00017697542017;43.06148722135103, 1.00017697542017;73;MIDI-PYRENEES;0
11;AUDE;11392;TOURNISSAN;43.08400089867392;2.660225055163378;43.08400089867392, 2.660225055163378;91;LANGUEDOC-ROUSSILLON;0
56;MORBIHAN;56166;PLOUAY;47.9270557389141;-3.337438841730625;47.9270557389141, -3.337438841730625;53;BRETAGNE;0
31;HAUTE-GARONNE;31440;PROUPIARY;43.15832264597712;0.867952822303067;43.15832264597712, 0.867952822303067;73;MIDI-PYRENEES;0
05;HAUTES-ALPES;05084;MONTGARDIN;44.54358478103922;6.233056657391454;44.54358478103922, 6.233056657391454;93;"""PROVENCE-ALPES-COTE D'AZUR""";0
43;HAUTE-LOIRE;43214;SAINT-PAL-DE-SENOUIRE;45.25755087820343;3.646844599727376;45.257550878203425, 3.646844599727376;83;AUVERGNE;0
49;MAINE-ET-LOIRE;49131;EPIEDS;47.13483675772889;-0.03857584801538;47.13483675772889, -0.038575848015380006;52;PAYS DE LA LOIRE;0
82;TARN-ET-GARONNE;82153;SAINT-AMANS-DU-PECH;44.31141034809422;0.893358658988576;44.31141034809422, 0.893358658988576;73;MIDI-PYRENEES;0
88;VOSGES;88129;DERBAMONT;48.2668731699867;6.271626062164576;48.2668731699867, 6.271626062164576;41;LORRAINE;0
31;HAUTE-GARONNE;31187;FONSORBES;43.531769574331264;1.23863670585457;43.531769574331264, 1.23863670585457;73;MIDI-PYRENEES;0
08;ARDENNES;08041;BAALONS;49.60167905312896;4.667545932389436;49.60167905312896, 4.6675459323894355;21;CHAMPAGNE-ARDENNE;0
14;CALVADOS;14239;ENGLESQUEVILLE-LA-PERCEE;49.37940431219965;-0.951377407958912;49.379404312199654, -0.9513774079589121;25;BASSE-NORMANDIE;0
32;GERS;32254;MIRAMONT-D'ASTARAC;43.54641825092095;0.466668332736487;43.54641825092095, 0.46666833273648706;73;MIDI-PYRENEES;0
54;MEURTHE-ET-MOSELLE;54226;GIBEAUMEIX;48.59073334877872;5.742998337260007;48.59073334877872, 5.742998337260007;41;LORRAINE;0
74;HAUTE-SAVOIE;74056;CHAMONIX-MONT-BLANC;45.93098191113019;6.923600967106133;45.93098191113019, 6.923600967106133;82;RHONE-ALPES;0
48;LOZERE;48050;COCURES;44.35394566838377;3.619559720651018;44.35394566838377, 3.619559720651018;91;LANGUEDOC-ROUSSILLON;0
10;AUBE;10130;DOSNON;48.61495827776811;4.246531825630952;48.61495827776811, 4.246531825630952;21;CHAMPAGNE-ARDENNE;0
54;MEURTHE-ET-MOSELLE;54408;OLLEY;49.17313727363758;5.7677323910294085;49.17313727363758, 5.7677323910294085;41;LORRAINE;0
57;MOSELLE;57547;POMMERIEUX;48.99502267857667;6.182566311280303;48.99502267857667, 6.182566311280303;41;LORRAINE;0
59;NORD;59425;NEUVILLE-EN-AVESNOIS;50.19950937186773;3.579040884452387;50.199509371867734, 3.579040884452387;31;NORD-PAS-DE-CALAIS;0
2B;HAUTE-CORSE;2B159;MERIA;42.92000153755807;9.43681745560289;42.920001537558065, 9.43681745560289;94;CORSE;0
76;SEINE-MARITIME;76163;CATENAY;49.51068071850222;1.326648473682651;49.51068071850222, 1.326648473682651;23;HAUTE-NORMANDIE;0
60;OISE;60501;LE PLESSIS-BRION;49.46221962230573;2.908470464303889;49.46221962230573, 2.908470464303889;22;PICARDIE;0
64;PYRENEES-ATLANTIQUES;64207;ESCOU;43.18369477559133;-0.5290497157653811;43.18369477559133, -0.5290497157653811;72;AQUITAINE;0
42;LOIRE;42185;RIVAS;45.588548401423175;4.25049605153908;45.588548401423175, 4.25049605153908;82;RHONE-ALPES;0
91;ESSONNE;91546;SAINT-CYR-SOUS-DOURDAN;48.56550614116336;2.037821097286201;48.565506141163354, 2.037821097286201;11;ILE-DE-FRANCE;0
44;LOIRE-ATLANTIQUE;44044;CONQUEREUIL;47.64885190775954;-1.762228163962783;47.64885190775954, -1.762228163962783;52;PAYS DE LA LOIRE;0
89;YONNE;89349;SAINT-LEGER-VAUBAN;47.37292590008652;4.060343415169236;47.37292590008652, 4.060343415169236;26;BOURGOGNE;0
65;HAUTES-PYRENEES;65228;ILHET;42.9636295909845;0.396133786225133;42.9636295909845, 0.396133786225133;73;MIDI-PYRENEES;0
25;DOUBS;25489;REUGNEY;47.01034946022892;6.152672176683903;47.01034946022892, 6.152672176683903;43;FRANCHE-COMTE;0
91;ESSONNE;91629;VALPUISEAUX;48.39222796364069;2.30328757315196;48.39222796364069, 2.3032875731519598;11;ILE-DE-FRANCE;0
03;ALLIER;03068;CHATELUS;46.19803828275904;3.7251111109186734;46.198038282759036, 3.7251111109186743;83;AUVERGNE;0
60;OISE;60124;CANDOR;49.62855667142699;2.887803504606276;49.62855667142699, 2.887803504606276;22;PICARDIE;0
27;EURE;27343;HOULBEC-COCHEREL;49.06454234792077;1.361256742288052;49.06454234792077, 1.361256742288052;23;HAUTE-NORMANDIE;0
14;CALVADOS;14282;FOULOGNES;49.13984493388512;-0.8059562683669821;49.139844933885115, -0.8059562683669821;25;BASSE-NORMANDIE;0
74;HAUTE-SAVOIE;74287;VAILLY;46.2936006568437;6.55263148753428;46.2936006568437, 6.5526314875342795;82;RHONE-ALPES;0
55;MEUSE;55541;VAVINCOURT;48.82328962514286;5.195316645766728;48.82328962514286, 5.195316645766728;41;LORRAINE;0
64;PYRENEES-ATLANTIQUES;64484;SAINT-JEAN-LE-VIEUX;43.17141108814256;-1.207323343783413;43.17141108814256, -1.207323343783413;72;AQUITAINE;0
65;HAUTES-PYRENEES;65237;JUNCALAS;43.052769982588536;0.001173934175082;43.052769982588536, 0.001173934175082;73;MIDI-PYRENEES;0
12;AVEYRON;12034;BRANDONNET;44.38237560531627;2.137467784401773;44.38237560531627, 2.137467784401773;73;MIDI-PYRENEES;0
33;GIRONDE;33345;LE PUY;44.65953822683426;0.060384938546694;44.65953822683426, 0.060384938546694;72;AQUITAINE;0
80;SOMME;80001;ABBEVILLE;50.10835829438975;1.832091702071713;50.10835829438975, 1.832091702071713;22;PICARDIE;0
10;AUBE;10120;CUSSANGY;48.02304989154205;4.090991679751325;48.023049891542044, 4.090991679751325;21;CHAMPAGNE-ARDENNE;0
02;AISNE;02233;CRAMAILLE;49.22855417370254;3.452273030728617;49.22855417370254, 3.452273030728617;22;PICARDIE;0
60;OISE;60399;LE MESNIL-SAINT-FIRMIN;49.62595907039785;2.41044983881998;49.62595907039785, 2.41044983881998;22;PICARDIE;0
89;YONNE;89211;JUNAY;47.87850146329884;3.942073196744567;47.87850146329884, 3.942073196744567;26;BOURGOGNE;0
03;ALLIER;03310;VICHY;46.13000513829155;3.424420811738023;46.13000513829155, 3.424420811738023;83;AUVERGNE;0
60;OISE;60149;CHEVRIERES;49.346107472055245;2.6796819879256413;49.346107472055245, 2.6796819879256413;22;PICARDIE;0
01;AIN;01452;VIRIEU-LE-GRAND;45.846441787227945;5.639719403473871;45.846441787227945, 5.639719403473871;82;RHONE-ALPES;0
62;PAS-DE-CALAIS;62632;OBLINGHEM;50.55124764873284;2.593527291356926;50.55124764873284, 2.593527291356926;31;NORD-PAS-DE-CALAIS;0
68;HAUT-RHIN;68191;LUEMSCHWILLER;47.65761445062595;7.297030454825589;47.65761445062595, 7.297030454825589;42;ALSACE;0
33;GIRONDE;33392;SAINTE-CROIX-DU-MONT;44.59799619342441;-0.272147017145607;44.59799619342441, -0.272147017145607;72;AQUITAINE;0
83;VAR;83113;SAINT-JULIEN;43.69996137162787;5.914993166143747;43.69996137162787, 5.914993166143747;93;"""PROVENCE-ALPES-COTE D'AZUR""";0
04;ALPES-DE-HAUTE-PROVENCE;04138;NIOZELLES;43.93185681042176;5.847350078893545;43.931856810421756, 5.847350078893545;93;"""PROVENCE-ALPES-COTE D'AZUR""";0
11;AUDE;11103;COUIZA;42.93521992967659;2.270476052957796;42.93521992967659, 2.270476052957796;91;LANGUEDOC-ROUSSILLON;0
09;ARIEGE;09208;MONTGAUCH;42.99453048847907;1.072839651805827;42.99453048847907, 1.072839651805827;73;MIDI-PYRENEES;0
77;SEINE-ET-MARNE;77363;LE PIN;48.914432900406986;2.6283855469111077;48.914432900406986, 2.6283855469111073;11;ILE-DE-FRANCE;0
75;PARIS;75110;PARIS-10E-ARRONDISSEMENT;48.87602855694339;2.361112904561707;48.87602855694339, 2.361112904561707;11;ILE-DE-FRANCE;0
21;"""COTE-D'OR""";21185;COMBERTAULT;46.99219485977096;4.903423668067405;46.992194859770954, 4.903423668067405;26;BOURGOGNE;0
86;VIENNE;86186;OYRE;46.86266532709344;0.6463210392759831;46.86266532709344, 0.6463210392759831;54;POITOU-CHARENTES;0
68;HAUT-RHIN;68128;HEIMERSDORF;47.56320650495599;7.236678620058698;47.563206504955986, 7.236678620058698;42;ALSACE;0
12;AVEYRON;12303;VIMENET;44.400054732189645;2.929524681469334;44.400054732189645, 2.929524681469334;73;MIDI-PYRENEES;0
25;DOUBS;25164;CORCONDRAY;47.22598051714813;5.827481954398568;47.22598051714813, 5.827481954398568;43;FRANCHE-COMTE;0
92;HAUTS-DE-SEINE;92063;RUEIL-MALMAISON;48.86918973711631;2.177340631498934;48.86918973711631, 2.177340631498934;11;ILE-DE-FRANCE;0
62;PAS-DE-CALAIS;62342;FONTAINE-LES-BOULANS;50.49865730152334;2.283984632586254;50.49865730152334, 2.283984632586254;31;NORD-PAS-DE-CALAIS;0
91;ESSONNE;91340;LISSES;48.59666888557239;2.424690946055102;48.59666888557239, 2.424690946055102;11;ILE-DE-FRANCE;0
62;PAS-DE-CALAIS;62470;INCOURT;50.38735397325605;2.150388789072085;50.38735397325605, 2.150388789072085;31;NORD-PAS-DE-CALAIS;0
72;SARTHE;72238;PIZIEUX;48.323078346630176;0.33365822753335;48.323078346630176, 0.33365822753335;52;PAYS DE LA LOIRE;0
44;LOIRE-ATLANTIQUE;44102;MONTBERT;47.06794339308905;-1.47018527329736;47.06794339308905, -1.47018527329736;52;PAYS DE LA LOIRE;0
60;OISE;60126;CANNECTANCOURT;49.54836511269929;2.896222718416645;49.54836511269929, 2.896222718416645;22;PICARDIE;0
51;MARNE;51006;ALLIANCELLES;48.80338696186515;4.874185197583062;48.80338696186515, 4.874185197583062;21;CHAMPAGNE-ARDENNE;0
44;LOIRE-ATLANTIQUE;44144;RIAILLE;47.52097266691336;-1.312056983323654;47.52097266691336, -1.312056983323654;52;PAYS DE LA LOIRE;0
28;EURE-ET-LOIR;28197;INTREVILLE;48.29823788139705;1.935529535337244;48.29823788139705, 1.9355295353372441;24;CENTRE;0
62;PAS-DE-CALAIS;62792;SERQUES;50.790749597337886;2.201660972416445;50.790749597337886, 2.201660972416445;31;NORD-PAS-DE-CALAIS;0
43;HAUTE-LOIRE;43108;JULLIANGES;45.30629067966596;3.782104201309376;45.30629067966596, 3.782104201309376;83;AUVERGNE;0
77;SEINE-ET-MARNE;77308;MONTGE-EN-GOELE;49.02938718757333;2.743910309150887;49.02938718757333, 2.743910309150887;11;ILE-DE-FRANCE;0
80;SOMME;80723;SAISSEVAL;49.90153209785796;2.118877196452646;49.90153209785796, 2.118877196452646;22;PICARDIE;0
27;EURE;27606;SAINT-SYMPHORIEN;49.31038961239378;0.455835904436009;49.31038961239378, 0.455835904436009;23;HAUTE-NORMANDIE;0
38;ISERE;38190;HIERES-SUR-AMBY;45.79966526124725;5.29431190301107;45.79966526124725, 5.29431190301107;82;RHONE-ALPES;0
63;PUY-DE-DOME;63031;BEAULIEU;45.44341638621726;3.285708603203462;45.44341638621726, 3.285708603203462;83;AUVERGNE;0
33;GIRONDE;33478;SAINT-SEURIN-SUR-L'ISLE;45.01057691461968;-0.001136750801398;45.010576914619676, -0.001136750801398;72;AQUITAINE;0
22;"""COTES-D'ARMOR""";22204;PLOEZAL;48.71713710707014;-3.180157239493772;48.71713710707014, -3.180157239493772;53;BRETAGNE;0
35;ILLE-ET-VILAINE;35217;LE PERTRE;48.03415233565491;-1.056022160533702;48.03415233565491, -1.056022160533702;53;BRETAGNE;0
57;MOSELLE;57561;RAHLING;48.99647684579752;7.238697079113293;48.99647684579752, 7.238697079113293;41;LORRAINE;0
24;DORDOGNE;24359;SADILLAC;44.72970047395106;0.490342737888093;44.72970047395106, 0.490342737888093;72;AQUITAINE;0
25;DOUBS;25255;FOURNET-BLANCHEROCHE;47.166208574848056;6.825241393028528;47.166208574848056, 6.825241393028528;43;FRANCHE-COMTE;0
71;SAONE-ET-LOIRE;71504;SAUNIERES;46.91196424526871;5.071678600558315;46.91196424526871, 5.071678600558315;26;BOURGOGNE;0
71;SAONE-ET-LOIRE;71286;MARY;46.61045081306095;4.500413868337422;46.61045081306095, 4.500413868337422;26;BOURGOGNE;0
62;PAS-DE-CALAIS;62608;NEUVILLE-BOURJONVAL;50.06697917186129;3.024953452004262;50.06697917186129, 3.024953452004262;31;NORD-PAS-DE-CALAIS;0
30;GARD;30136;JUNAS;43.761506736162936;4.117521598763941;43.761506736162936, 4.117521598763941;91;LANGUEDOC-ROUSSILLON;0
66;PYRENEES-ORIENTALES;66043;CASTEIL;42.50571556063429;2.420030629898097;42.50571556063429, 2.420030629898097;91;LANGUEDOC-ROUSSILLON;0
87;HAUTE-VIENNE;87086;LINARDS;45.703893585403456;1.53750261249626;45.703893585403456, 1.5375026124962599;74;LIMOUSIN;0
54;MEURTHE-ET-MOSELLE;54178;EPIEZ-SUR-CHIERS;49.50069726759405;5.500533329405226;49.50069726759405, 5.500533329405226;41;LORRAINE;0
12;AVEYRON;12219;SAINTE-EULALIE-D'OLT;44.46610130843542;2.919506530180736;44.46610130843542, 2.919506530180736;73;MIDI-PYRENEES;0
21;"""COTE-D'OR""";21605;SENNECEY-LES-DIJON;47.29208751725878;5.104185512168381;47.29208751725878, 5.104185512168381;26;BOURGOGNE;0
69;RHONE;69135;MONSOLS;46.22278356291281;4.513941810083049;46.22278356291281, 4.513941810083049;82;RHONE-ALPES;0
59;NORD;59041;BACHANT;50.20810069971177;3.875160019197915;50.20810069971177, 3.875160019197915;31;NORD-PAS-DE-CALAIS;0
41;LOIR-ET-CHER;41126;MAREUIL-SUR-CHER;47.27562085465358;1.303130313564026;47.27562085465358, 1.303130313564026;24;CENTRE;0
32;GERS;32182;LAHAS;43.56264313807417;0.8986440771201211;43.56264313807417, 0.8986440771201211;73;MIDI-PYRENEES;0
82;TARN-ET-GARONNE;82087;LAFRANCAISE;44.13545335996815;1.240219640587945;44.13545335996815, 1.240219640587945;73;MIDI-PYRENEES;0
35;ILLE-ET-VILAINE;35236;REDON;47.66097343267095;-2.080085686922393;47.66097343267095, -2.080085686922393;53;BRETAGNE;0
76;SEINE-MARITIME;76737;VIBEUF;49.68964454587229;0.912928114033222;49.68964454587229, 0.912928114033222;23;HAUTE-NORMANDIE;0
59;NORD;59399;MERRIS;50.717843596088926;2.657277061302724;50.717843596088926, 2.657277061302724;31;NORD-PAS-DE-CALAIS;0
31;HAUTE-GARONNE;31270;LANDORTHE;43.12951555233866;0.777804003502889;43.12951555233866, 0.777804003502889;73;MIDI-PYRENEES;0
76;SEINE-MARITIME;76185;COMPAINVILLE;49.65845592532258;1.5597522823155971;49.65845592532258, 1.5597522823155971;23;HAUTE-NORMANDIE;0
40;LANDES;40180;MEILHAN;43.85961228698228;-0.6955768648642651;43.85961228698228, -0.6955768648642651;72;AQUITAINE;0
43;HAUTE-LOIRE;43019;BARGES;44.83403697861168;3.88416858572884;44.83403697861168, 3.88416858572884;83;AUVERGNE;0
32;GERS;32262;MONBRUN;43.665258335173874;1.030710239044068;43.665258335173874, 1.030710239044068;73;MIDI-PYRENEES;0
17;CHARENTE-MARITIME;17071;LA BROUSSE;45.90237256337878;-0.365190879008147;45.90237256337878, -0.365190879008147;54;POITOU-CHARENTES;0
49;MAINE-ET-LOIRE;49174;LEZIGNE;47.636774464498586;-0.292940093918821;47.636774464498586, -0.29294009391882103;52;PAYS DE LA LOIRE;0
59;NORD;59547;SAINT-VAAST-EN-CAMBRESIS;50.19442714608286;3.435093126258772;50.19442714608286, 3.435093126258772;31;NORD-PAS-DE-CALAIS;0
09;ARIEGE;09205;MONTFA;43.10051075455074;1.288111986490533;43.10051075455074, 1.288111986490533;73;MIDI-PYRENEES;0
51;MARNE;51294;HOURGES;49.281019543988776;3.7706570687862913;49.281019543988776, 3.7706570687862913;21;CHAMPAGNE-ARDENNE;0
02;AISNE;02593;PASLY;49.40228001305137;3.297995279994911;49.40228001305137, 3.297995279994911;22;PICARDIE;0
61;ORNE;61497;VALFRAMBERT;48.46486373974218;0.1105620267009;48.46486373974218, 0.11056202670090001;25;BASSE-NORMANDIE;0
81;TARN;81199;PADIES;44.04487213854715;2.364143668449096;44.04487213854715, 2.364143668449096;73;MIDI-PYRENEES;0
68;HAUT-RHIN;68200;MANSPACH;47.61162598175766;7.092549825702582;47.61162598175766, 7.092549825702582;42;ALSACE;0
95;"""VAL-D'OISE""";95680;VILLIERS-LE-BEL;49.00844941568135;2.403856040394518;49.00844941568135, 2.403856040394518;11;ILE-DE-FRANCE;0
82;TARN-ET-GARONNE;82066;GENEBRIERES;44.00122411107539;1.4904317598778292;44.00122411107539, 1.4904317598778292;73;MIDI-PYRENEES;0
70;HAUTE-SAONE;70148;CHEMILLY;47.6416852950739;6.017751581702882;47.6416852950739, 6.017751581702882;43;FRANCHE-COMTE;0
51;MARNE;51219;DROSNAY;48.57309707329538;4.618430854506549;48.57309707329538, 4.618430854506549;21;CHAMPAGNE-ARDENNE;0
71;SAONE-ET-LOIRE;71307;MONTCEAUX-L'ETOILE;46.35645084288723;4.045003238225372;46.35645084288723, 4.045003238225372;26;BOURGOGNE;0
28;EURE-ET-LOIR;28332;SAINTE-GEMME-MORONVAL;48.73553735777085;1.41198816896092;48.73553735777085, 1.41198816896092;24;CENTRE;0
24;DORDOGNE;24213;JAURE;45.05473633866274;0.5570564375855851;45.05473633866274, 0.5570564375855851;72;AQUITAINE;0
71;SAONE-ET-LOIRE;71193;ETRIGNY;46.58927680031863;4.791602010980585;46.58927680031863, 4.791602010980585;26;BOURGOGNE;0
70;HAUTE-SAONE;70443;LA GRANDE-RESIE;47.3367024964686;5.563265090231975;47.3367024964686, 5.563265090231975;43;FRANCHE-COMTE;0
16;CHARENTE;16401;VERVANT;45.83535967141165;0.129842160717569;45.83535967141165, 0.12984216071756902;54;POITOU-CHARENTES;0
37;INDRE-ET-LOIRE;37212;SAINTE-CATHERINE-DE-FIERBOIS;47.15668935725718;0.676679379745038;47.15668935725718, 0.676679379745038;24;CENTRE;0
83;VAR;83121;SALERNES;43.562109933890845;6.228730672353172;43.562109933890845, 6.228730672353172;93;"""PROVENCE-ALPES-COTE D'AZUR""";0
13;BOUCHES-DU-RHONE;13039;FOS-SUR-MER;43.45568121069189;4.904521339124062;43.45568121069189, 4.904521339124062;93;"""PROVENCE-ALPES-COTE D'AZUR""";0
13;BOUCHES-DU-RHONE;13116;VERQUIERES;43.83865516069197;4.9188995103994095;43.83865516069197, 4.9188995103994095;93;"""PROVENCE-ALPES-COTE D'AZUR""";0
40;LANDES;40022;BAHUS-SOUBIRAN;43.67283452134422;-0.345658334640937;43.67283452134422, -0.34565833464093704;72;AQUITAINE;0
59;NORD;59365;LOUVROIL;50.25778669035712;3.953876434110022;50.25778669035712, 3.953876434110022;31;NORD-PAS-DE-CALAIS;0
87;HAUTE-VIENNE;87140;SAINT-BRICE-SUR-VIENNE;45.902330486555606;0.96357408182932;45.902330486555606, 0.96357408182932;74;LIMOUSIN;0
73;SAVOIE;73301;TREVIGNIN;45.70470659218022;5.968598562048646;45.70470659218022, 5.968598562048646;82;RHONE-ALPES;0
31;HAUTE-GARONNE;31120;LE CASTERA;43.67097690419827;1.144783540834326;43.67097690419827, 1.144783540834326;73;MIDI-PYRENEES;0
55;MEUSE;55456;SAINT-GERMAIN-SUR-MEUSE;48.64801312719581;5.72350490370835;48.64801312719581, 5.72350490370835;41;LORRAINE;0
35;ILLE-ET-VILAINE;35034;LA BOUSSAC;48.51676920014853;-1.649432369514699;48.51676920014853, -1.649432369514699;53;BRETAGNE;0
70;HAUTE-SAONE;70564;VILLERS-LES-LUXEUIL;47.76879660138181;6.279952164429954;47.76879660138181, 6.279952164429954;43;FRANCHE-COMTE;0
46;LOT;46207;MONTREDON;44.61305858023992;2.184670351644774;44.613058580239915, 2.184670351644774;73;MIDI-PYRENEES;0
71;SAONE-ET-LOIRE;71100;CHARDONNAY;46.508721430123146;4.84818799475162;46.508721430123146, 4.84818799475162;26;BOURGOGNE;0
16;CHARENTE;16060;BREVILLE;45.78915371454136;-0.274845145483421;45.78915371454136, -0.27484514548342104;54;POITOU-CHARENTES;0
02;AISNE;02703;SEBONCOURT;49.96260664368938;3.494259981634695;49.962606643689384, 3.494259981634695;22;PICARDIE;0
27;EURE;27057;BERNIENVILLE;49.0744161961966;1.028766449778339;49.0744161961966, 1.028766449778339;23;HAUTE-NORMANDIE;0
11;AUDE;11318;ROQUECOURBE-MINERVOIS;43.21497620037327;2.654098233531724;43.21497620037327, 2.654098233531724;91;LANGUEDOC-ROUSSILLON;0
28;EURE-ET-LOIR;28339;SAINT-GERMAIN-LE-GAILLARD;48.424202507739786;1.254617369671324;48.424202507739786, 1.254617369671324;24;CENTRE;0
60;OISE;60367;LOCONVILLE;49.25743941932004;1.919814969850412;49.25743941932004, 1.9198149698504121;22;PICARDIE;0
01;AIN;01029;BEAUPONT;46.42883602028796;5.260034056758178;46.42883602028796, 5.260034056758178;82;RHONE-ALPES;0
02;AISNE;02494;MONCEAU-SUR-OISE;49.90977327441061;3.699474325878109;49.909773274410604, 3.699474325878109;22;PICARDIE;0
84;VAUCLUSE;84010;LA BASTIDONNE;43.69283832607719;5.577693517683078;43.69283832607719, 5.577693517683078;93;"""PROVENCE-ALPES-COTE D'AZUR""";0
01;AIN;01009;ANDERT-ET-CONDON;45.7873565332871;5.657883079236458;45.7873565332871, 5.657883079236458;82;RHONE-ALPES;0
02;AISNE;02765;VAUCELLES-ET-BEFFECOURT;49.52069000375783;3.558774607236231;49.52069000375783, 3.558774607236231;22;PICARDIE;0
67;BAS-RHIN;67542;WINTZENHEIM-KOCHERSBERG;48.65782237009059;7.5078644673324675;48.65782237009059, 7.5078644673324675;42;ALSACE;0
12;AVEYRON;12136;MALEVILLE;44.3999943584231;2.10361790018837;44.3999943584231, 2.10361790018837;73;MIDI-PYRENEES;0
57;MOSELLE;57236;FREMERY;48.92401753631696;6.473444719007488;48.92401753631696, 6.473444719007488;41;LORRAINE;0
50;MANCHE;50108;CEAUX;48.63052740480093;-1.384991015907416;48.63052740480093, -1.3849910159074161;25;BASSE-NORMANDIE;0
62;PAS-DE-CALAIS;62601;NEDONCHEL;50.52713399631908;2.3547482552568573;50.52713399631908, 2.3547482552568573;31;NORD-PAS-DE-CALAIS;0
60;OISE;60587;SAINT-MARTIN-LONGUEAU;49.34747064446761;2.59996403152163;49.34747064446761, 2.59996403152163;22;PICARDIE;0
63;PUY-DE-DOME;63142;ECHANDELYS;45.54695295669408;3.5313123833392943;45.54695295669408, 3.5313123833392943;83;AUVERGNE;0
26;DROME;26128;EYGLUY-ESCOULIN;44.79824930878987;5.209849772492139;44.79824930878987, 5.209849772492139;82;RHONE-ALPES;0
24;DORDOGNE;24140;COURS-DE-PILE;44.83649216754863;0.557691807136087;44.83649216754863, 0.557691807136087;72;AQUITAINE;0
78;YVELINES;78190;CROISSY-SUR-SEINE;48.87878255915787;2.135411645886893;48.87878255915787, 2.135411645886893;11;ILE-DE-FRANCE;0
75;PARIS;75116;PARIS-16E-ARRONDISSEMENT;48.86039876035177;2.262099559395783;48.86039876035177, 2.262099559395783;11;ILE-DE-FRANCE;0
46;LOT;46228;PRUDHOMAT;44.89675628595229;1.817361315874522;44.89675628595229, 1.817361315874522;73;MIDI-PYRENEES;0
11;AUDE;11207;LOUPIA;43.06197870931403;2.125492175240305;43.06197870931403, 2.125492175240305;91;LANGUEDOC-ROUSSILLON;0
21;"""COTE-D'OR""";21475;PAGNY-LE-CHATEAU;47.04995388464402;5.211533478665581;47.04995388464402, 5.211533478665581;26;BOURGOGNE;0
57;MOSELLE;57471;MOMERSTROFF;49.15458734571708;6.53247203456904;49.15458734571708, 6.53247203456904;41;LORRAINE;0
46;LOT;46097;ESTAL;44.91932854179544;1.918802532058323;44.91932854179544, 1.918802532058323;73;MIDI-PYRENEES;0
2B;HAUTE-CORSE;2B086;CENTURI;42.967184652964;9.364498523174625;42.967184652963994, 9.364498523174625;94;CORSE;0
27;EURE;27072;BOIS-JEROME-SAINT-OUEN;49.10287776627299;1.548434370665757;49.10287776627299, 1.548434370665757;23;HAUTE-NORMANDIE;0
86;VIENNE;86237;SAINT-PIERRE-D'EXIDEUIL;46.15974710092945;0.258206658721681;46.15974710092945, 0.258206658721681;54;POITOU-CHARENTES;0
62;PAS-DE-CALAIS;62339;FLEURY;50.423560947411445;2.252984121743809;50.423560947411445, 2.252984121743809;31;NORD-PAS-DE-CALAIS;0
25;DOUBS;25003;ABBENANS;47.49608792792638;6.450601751123378;47.49608792792638, 6.450601751123378;43;FRANCHE-COMTE;0
14;CALVADOS;14223;LE DETROIT;48.87385967322971;-0.345051519297749;48.87385967322971, -0.345051519297749;25;BASSE-NORMANDIE;0
60;OISE;60048;BAUGY;49.455927190759645;2.755175064223477;49.455927190759645, 2.755175064223477;22;PICARDIE;0
55;MEUSE;55154;DIEUE-SUR-MEUSE;49.07974035820211;5.429630363021914;49.07974035820211, 5.429630363021914;41;LORRAINE;0
03;ALLIER;03044;BRUGHEAS;46.07283471467042;3.366059924500093;46.07283471467042, 3.366059924500093;83;AUVERGNE;0
67;BAS-RHIN;67386;RAUWILLER;48.809841850779954;7.11166295825353;48.809841850779954, 7.11166295825353;42;ALSACE;0
57;MOSELLE;57055;BAZONCOURT;49.057272812021615;6.385085592550793;49.057272812021615, 6.385085592550793;41;LORRAINE;0
76;SEINE-MARITIME;76281;LA FRENAYE;49.52083600557939;0.573461077843192;49.52083600557939, 0.573461077843192;23;HAUTE-NORMANDIE;0
63;PUY-DE-DOME;63184;LACHAUX;45.99231352821319;3.593922643407203;45.99231352821319, 3.593922643407203;83;AUVERGNE;0
60;OISE;60670;VERNEUIL-EN-HALATTE;49.27299209181509;2.534621909716659;49.27299209181509, 2.534621909716659;22;PICARDIE;0
08;ARDENNES;08484;VILLE-SUR-RETOURNE;49.39396443492426;4.447160122208673;49.39396443492426, 4.447160122208673;21;CHAMPAGNE-ARDENNE;0
35;ILLE-ET-VILAINE;35251;SAINT-AUBIN-D'AUBIGNE;48.26202299964363;-1.600284410815738;48.26202299964363, -1.6002844108157381;53;BRETAGNE;0
52;HAUTE-MARNE;52321;MERTRUD;48.425326786806494;4.884020941703;48.425326786806494, 4.884020941703;21;CHAMPAGNE-ARDENNE;0
14;CALVADOS;14171;COMBRAY;48.94614210488304;-0.445696929098587;48.94614210488304, -0.44569692909858705;25;BASSE-NORMANDIE;0
27;EURE;27176;COUDRAY;49.343297943610125;1.496824669311706;49.343297943610125, 1.496824669311706;23;HAUTE-NORMANDIE;0
50;MANCHE;50475;SAINT-GEORGES-MONTCOCQ;49.13511685752763;-1.109540060584656;49.13511685752763, -1.109540060584656;25;BASSE-NORMANDIE;0
18;CHER;18234;SAINT-SATURNIN;46.50624784915114;2.240467535134283;46.506247849151144, 2.240467535134283;24;CENTRE;0
02;AISNE;02078;BESME;49.53416828190126;3.16474171361068;49.53416828190126, 3.16474171361068;22;PICARDIE;0
60;OISE;60631;THIERS-SUR-THEVE;49.15366485742996;2.578197512484602;49.15366485742996, 2.578197512484602;22;PICARDIE;0
50;MANCHE;50273;LITHAIRE;49.29640160313059;-1.488935629270507;49.29640160313059, -1.488935629270507;25;BASSE-NORMANDIE;0
64;PYRENEES-ATLANTIQUES;64172;CASTEIDE-CANDAU;43.52462186111355;-0.557545327219498;43.52462186111355, -0.557545327219498;72;AQUITAINE;0
18;CHER;18015;AUBIGNY-SUR-NERE;47.48617182627379;2.421217884519903;47.48617182627379, 2.421217884519903;24;CENTRE;0
61;ORNE;61290;MONTREUIL-AU-HOULME;48.681694036748944;-0.26647711043901;48.681694036748944, -0.26647711043901;25;BASSE-NORMANDIE;0
44;LOIRE-ATLANTIQUE;44157;SAINT-ETIENNE-DE-MER-MORTE;46.945273579824864;-1.718308135478765;46.945273579824864, -1.718308135478765;52;PAYS DE LA LOIRE;0
02;AISNE;02600;PIERREPONT;49.64827846013177;3.787775467229048;49.64827846013177, 3.7877754672290482;22;PICARDIE;0
71;SAONE-ET-LOIRE;71010;ANTULLY;46.89265377309216;4.40284807189394;46.892653773092164, 4.40284807189394;26;BOURGOGNE;0
02;AISNE;02427;LHUYS;49.272852804771546;3.542306352860291;49.272852804771546, 3.542306352860291;22;PICARDIE;0
83;VAR;83139;TOURTOUR;43.593580087460815;6.310682971998806;43.593580087460815, 6.310682971998806;93;"""PROVENCE-ALPES-COTE D'AZUR""";0
60;OISE;60296;HANNACHES;49.508775283777496;1.80840356242888;49.508775283777496, 1.8084035624288801;22;PICARDIE;0
29;FINISTERE;29057;LA FORET-FOUESNANT;47.920154793567285;-3.968626284031464;47.920154793567285, -3.968626284031464;53;BRETAGNE;0
59;NORD;59565;SEPMERIES;50.27725515168432;3.560802138169409;50.27725515168432, 3.560802138169409;31;NORD-PAS-DE-CALAIS;0
52;HAUTE-MARNE;52524;VIGNORY;48.27563794933058;5.089519905214612;48.27563794933058, 5.089519905214612;21;CHAMPAGNE-ARDENNE;0
77;SEINE-ET-MARNE;77371;POMMEUSE;48.81787235106288;3.006132686773105;48.817872351062874, 3.006132686773105;11;ILE-DE-FRANCE;0
37;INDRE-ET-LOIRE;37032;BOURNAN;47.0687895405548;0.7310286672995401;47.0687895405548, 0.7310286672995401;24;CENTRE;0
82;TARN-ET-GARONNE;82191;VERFEIL;44.18475297925428;1.874646804767354;44.18475297925428, 1.874646804767354;73;MIDI-PYRENEES;0
58;NIEVRE;58256;SAINT-MARTIN-SUR-NOHAIN;47.35840106936063;2.9882517615941837;47.358401069360625, 2.9882517615941833;26;BOURGOGNE;0
73;SAVOIE;73309;VEREL-DE-MONTBEL;45.55374091908149;5.723946071816661;45.553740919081484, 5.723946071816661;82;RHONE-ALPES;0
67;BAS-RHIN;67099;DOMFESSEL;48.9480129451872;7.145888765085421;48.9480129451872, 7.145888765085421;42;ALSACE;0
16;CHARENTE;16160;GUIMPS;45.46589813401034;-0.254673070491433;45.46589813401034, -0.254673070491433;54;POITOU-CHARENTES;0
60;OISE;60489;PEROY-LES-GOMBRIES;49.16567494636816;2.843206315475178;49.165674946368156, 2.843206315475178;22;PICARDIE;0
45;LOIRET;45293;SAINT-MAURICE-SUR-FESSARD;47.99117966580583;2.615274226560325;47.99117966580583, 2.615274226560325;24;CENTRE;0
2A;CORSE-DU-SUD;2A024;AULLENE;41.806789822325776;9.092667516018;41.806789822325776, 9.092667516018;94;CORSE;0
09;ARIEGE;09097;CLERMONT;43.03721970485921;1.290615564381312;43.03721970485921, 1.290615564381312;73;MIDI-PYRENEES;0
44;LOIRE-ATLANTIQUE;44135;LE POULIGUEN;47.271620898182114;-2.432102659770456;47.271620898182114, -2.432102659770456;52;PAYS DE LA LOIRE;0
14;CALVADOS;14452;MORTEAUX-COULIBOEUF;48.92398457561647;-0.081385727773997;48.92398457561647, -0.08138572777399701;25;BASSE-NORMANDIE;0
76;SEINE-MARITIME;76551;SAINNEVILLE;49.552460859520814;0.292951344544498;49.552460859520814, 0.292951344544498;23;HAUTE-NORMANDIE;0
51;MARNE;51246;FAVRESSE;48.71912968700744;4.717284077571705;48.71912968700744, 4.717284077571705;21;CHAMPAGNE-ARDENNE;0
57;MOSELLE;57465;METZERVISSE;49.31680137520176;6.289181046943197;49.316801375201756, 6.289181046943197;41;LORRAINE;0
01;AIN;01065;BUELLAS;46.21041351619301;5.144874650172199;46.21041351619301, 5.144874650172199;82;RHONE-ALPES;0
60;OISE;60123;CAMPREMY;49.5638031018152;2.326963311605253;49.563803101815196, 2.326963311605253;22;PICARDIE;0
67;BAS-RHIN;67247;KOLBSHEIM;48.5621490704914;7.586217369544148;48.5621490704914, 7.586217369544148;42;ALSACE;0
08;ARDENNES;08217;HAULME;49.85790406363602;4.792557907650543;49.85790406363602, 4.792557907650543;21;CHAMPAGNE-ARDENNE;0
45;LOIRET;45309;SENNELY;47.7015601032248;2.133321788376322;47.7015601032248, 2.133321788376322;24;CENTRE;0
41;LOIR-ET-CHER;41150;MONT-PRES-CHAMBORD;47.55760748143199;1.448028151550264;47.55760748143199, 1.448028151550264;24;CENTRE;0
71;SAONE-ET-LOIRE;71058;BRESSE-SUR-GROSNE;46.59465639773816;4.728119706242077;46.59465639773816, 4.728119706242077;26;BOURGOGNE;0
54;MEURTHE-ET-MOSELLE;54255;HAUDONVILLE;48.50124080601508;6.478897380325834;48.50124080601508, 6.478897380325834;41;LORRAINE;0
80;SOMME;80212;CORBIE;49.92020424891179;2.494985069058375;49.92020424891179, 2.494985069058375;22;PICARDIE;0
73;SAVOIE;73074;LA CHAPELLE;45.42173032267019;6.29384300806897;45.42173032267019, 6.29384300806897;82;RHONE-ALPES;0
55;MEUSE;55215;GONDRECOURT-LE-CHATEAU;48.49274140567534;5.505672225247793;48.49274140567534, 5.505672225247793;41;LORRAINE;0
78;YVELINES;78296;GUITRANCOURT;49.00756687716465;1.779064638472241;49.00756687716465, 1.779064638472241;11;ILE-DE-FRANCE;0
17;CHARENTE-MARITIME;17214;LUCHAT;45.71511437336853;-0.763297956768714;45.71511437336853, -0.763297956768714;54;POITOU-CHARENTES;0
54;MEURTHE-ET-MOSELLE;54392;MOUTROT;48.6018097016461;5.896848757720479;48.601809701646104, 5.896848757720479;41;LORRAINE;0
21;"""COTE-D'OR""";21415;MINOT;47.6626858600687;4.871610060580791;47.6626858600687, 4.871610060580791;26;BOURGOGNE;0
32;GERS;32192;LANNUX;43.64520942785933;-0.223285876186715;43.64520942785933, -0.22328587618671503;73;MIDI-PYRENEES;0
50;MANCHE;50169;ECAUSSEVILLE;49.459723972095205;-1.382600004388028;49.459723972095205, -1.382600004388028;25;BASSE-NORMANDIE;0
11;AUDE;11111;CRUSCADES;43.20003209400521;2.81675386264541;43.20003209400521, 2.81675386264541;91;LANGUEDOC-ROUSSILLON;0
56;MORBIHAN;56215;SAINT-GONNERY;48.12596503051482;-2.8222508361697463;48.12596503051482, -2.8222508361697463;53;BRETAGNE;0
09;ARIEGE;09094;CERIZOLS;43.119564790257314;1.067388699250492;43.119564790257314, 1.067388699250492;73;MIDI-PYRENEES;0
76;SEINE-MARITIME;76077;BENESVILLE;49.75171649638632;0.8281445765490231;49.75171649638632, 0.8281445765490231;23;HAUTE-NORMANDIE;0
47;LOT-ET-GARONNE;47008;AMBRUS;44.23064535394433;0.24632251288117;44.23064535394433, 0.24632251288117002;72;AQUITAINE;0
18;CHER;18238;SAINT-VITTE;46.53928896641391;2.529399574479009;46.539288966413906, 2.529399574479009;24;CENTRE;0
71;SAONE-ET-LOIRE;71243;JOUDES;46.47320758413919;5.339489562817649;46.47320758413919, 5.339489562817649;26;BOURGOGNE;0
34;HERAULT;34046;CAMBON-ET-SALVERGUES;43.625504452029794;2.8904708498264933;43.625504452029794, 2.8904708498264933;91;LANGUEDOC-ROUSSILLON;0
14;CALVADOS;14427;LE MESNIL-VILLEMENT;48.85638999167412;-0.3765786549793;48.85638999167412, -0.37657865497930004;25;BASSE-NORMANDIE;0
13;BOUCHES-DU-RHONE;13019;CABRIES;43.44964219190508;5.349766639843388;43.44964219190508, 5.349766639843388;93;"""PROVENCE-ALPES-COTE D'AZUR""";0
60;OISE;60662;LE VAUROUX;49.38122185175104;1.914945530805478;49.381221851751036, 1.9149455308054781;22;PICARDIE;0
80;SOMME;80051;BAILLEUL;50.025846955253776;1.8550499813719448;50.025846955253776, 1.8550499813719452;22;PICARDIE;0
54;MEURTHE-ET-MOSELLE;54371;MOINEVILLE;49.19701409323712;5.9483625425054125;49.197014093237115, 5.9483625425054125;41;LORRAINE;0
02;AISNE;02738;TERGNIER;49.6572646108619;3.299240774781272;49.6572646108619, 3.299240774781272;22;PICARDIE;0
71;SAONE-ET-LOIRE;71579;VILLENEUVE-EN-MONTAGNE;46.76208593266762;4.589233586351297;46.76208593266762, 4.589233586351297;26;BOURGOGNE;0
15;CANTAL;15218;SAINT-VINCENT-DE-SALERS;45.207487431753;2.538943401249678;45.207487431753, 2.538943401249678;83;AUVERGNE;0
41;LOIR-ET-CHER;41190;ROCE;47.813684710140585;1.148711942736434;47.813684710140585, 1.148711942736434;24;CENTRE;0
62;PAS-DE-CALAIS;62827;TOURNEHEM-SUR-LA-HEM;50.79162144712004;2.047691694318184;50.791621447120036, 2.047691694318184;31;NORD-PAS-DE-CALAIS;0
06;ALPES-MARITIMES;06122;SAINT-JEANNET;43.75884538903998;7.140732117564657;43.75884538903998, 7.140732117564657;93;"""PROVENCE-ALPES-COTE D'AZUR""";0
31;HAUTE-GARONNE;31539;SEDEILHAC;43.14772032766575;0.5427464694061971;43.147720327665745, 0.5427464694061971;73;MIDI-PYRENEES;0
72;SARTHE;72111;CURES;48.08463949613154;0.016600570172663;48.084639496131544, 0.016600570172663;52;PAYS DE LA LOIRE;0
87;HAUTE-VIENNE;87059;LE DORAT;46.205092380923546;1.067746714155023;46.205092380923546, 1.067746714155023;74;LIMOUSIN;0
35;ILLE-ET-VILAINE;35234;QUEDILLAC;48.23782528751732;-2.143541065514862;48.23782528751732, -2.143541065514862;53;BRETAGNE;0
84;VAUCLUSE;84004;AUBIGNAN;44.09773805891698;5.031656767351385;44.09773805891698, 5.031656767351385;93;"""PROVENCE-ALPES-COTE D'AZUR""";0
11;AUDE;11138;FENDEILLE;43.27080669318356;1.9482824847793712;43.27080669318356, 1.9482824847793712;91;LANGUEDOC-ROUSSILLON;0
88;VOSGES;88358;POUXEUX;48.0951237994792;6.564837091519471;48.095123799479204, 6.564837091519471;41;LORRAINE;0
67;BAS-RHIN;67223;INNENHEIM;48.49754440205887;7.573529761579826;48.49754440205887, 7.573529761579826;42;ALSACE;0
08;ARDENNES;08291;MOGUES;49.65975875142667;5.283076404364118;49.65975875142667, 5.283076404364118;21;CHAMPAGNE-ARDENNE;0
57;MOSELLE;57330;HOLVING;49.0141852798259;6.968433200287903;49.0141852798259, 6.968433200287903;41;LORRAINE;0
51;MARNE;51415;OMEY;48.85081632005932;4.505734807498411;48.850816320059316, 4.505734807498411;21;CHAMPAGNE-ARDENNE;0
33;GIRONDE;33027;BARIE;44.57106815184524;-0.111645415982804;44.57106815184524, -0.111645415982804;72;AQUITAINE;0
83;VAR;83106;ROCBARON;43.30666869263976;6.083616583344971;43.306668692639754, 6.083616583344971;93;"""PROVENCE-ALPES-COTE D'AZUR""";0
68;HAUT-RHIN;68202;MERTZEN;47.58690728901924;7.129197765594501;47.58690728901924, 7.129197765594501;42;ALSACE;0
90;TERRITOIRE DE BELFORT;90023;CHAUX;47.71253747527201;6.838331703472108;47.71253747527201, 6.838331703472108;43;FRANCHE-COMTE;0
09;ARIEGE;09166;LEYCHERT;42.94613499912476;1.725686044562079;42.94613499912476, 1.725686044562079;73;MIDI-PYRENEES;0
47;LOT-ET-GARONNE;47169;MOIRAX;44.139941001215234;0.6084056596185561;44.139941001215234, 0.6084056596185561;72;AQUITAINE;0
64;PYRENEES-ATLANTIQUES;64301;LAGOR;43.38293883601031;-0.667182045889777;43.38293883601031, -0.667182045889777;72;AQUITAINE;0
21;"""COTE-D'OR""";21227;DAROIS;47.39383810564001;4.93237096509715;47.39383810564001, 4.93237096509715;26;BOURGOGNE;0
45;LOIRET;45247;PANNES;48.01210099129198;2.6687856262843197;48.01210099129198, 2.6687856262843193;24;CENTRE;0
25;DOUBS;25478;RANDEVILLERS;47.30732174182368;6.5269989278429925;47.30732174182368, 6.5269989278429925;43;FRANCHE-COMTE;0
57;MOSELLE;57108;BREIDENBACH;49.13226024034064;7.418595580977485;49.13226024034064, 7.418595580977485;41;LORRAINE;0
27;EURE;27326;HECOURT;48.98842281274505;1.428735307306828;48.98842281274505, 1.428735307306828;23;HAUTE-NORMANDIE;0
38;ISERE;38132;LES COTES-DE-CORPS;44.84102650890057;5.930823648776012;44.84102650890057, 5.930823648776012;82;RHONE-ALPES;0
60;OISE;60177;CRESSONSACQ;49.4482382169637;2.567933684911473;49.4482382169637, 2.567933684911473;22;PICARDIE;0
38;ISERE;38207;LAVALDENS;44.99210987462762;5.903293983451335;44.99210987462762, 5.903293983451335;82;RHONE-ALPES;0
54;MEURTHE-ET-MOSELLE;54530;TRAMONT-LASSUS;48.40078456010006;5.966624078198255;48.40078456010006, 5.966624078198255;41;LORRAINE;0
36;INDRE;36052;CHOUDAY;46.921113319729415;2.053402567058931;46.921113319729415, 2.053402567058931;24;CENTRE;0
43;HAUTE-LOIRE;43215;SAINT-PAUL-DE-TARTAS;44.7990652285805;3.893568907207886;44.7990652285805, 3.893568907207886;83;AUVERGNE;0
57;MOSELLE;57393;LENGELSHEIM;49.10610170438514;7.407845648790376;49.10610170438514, 7.407845648790376;41;LORRAINE;0
25;DOUBS;25211;ECHEVANNES;47.07078418082183;6.236918341654642;47.07078418082183, 6.236918341654642;43;FRANCHE-COMTE;0
28;EURE-ET-LOIR;28140;EPERNON;48.59411355354391;1.685371567030075;48.594113553543906, 1.685371567030075;24;CENTRE;0
19;CORREZE;19241;SAINT-SETIERS;45.696753232026126;2.117359548701019;45.696753232026126, 2.117359548701019;74;LIMOUSIN;0
08;ARDENNES;08467;VAUX-MONTREUIL;49.5833689396016;4.556489456998087;49.5833689396016, 4.5564894569980865;21;CHAMPAGNE-ARDENNE;0
58;NIEVRE;58251;SAINT-LOUP;47.45247276837958;3.006894748714104;47.45247276837958, 3.006894748714104;26;BOURGOGNE;0
67;BAS-RHIN;67545;WITTERNHEIM;48.31342499650459;7.617716309303807;48.31342499650459, 7.617716309303807;42;ALSACE;0
21;"""COTE-D'OR""";21403;MENESSAIRE;47.133533845841015;4.151441557277389;47.133533845841015, 4.151441557277389;26;BOURGOGNE;0
07;ARDECHE;07151;MARS;45.01045438428771;4.329000510696851;45.01045438428771, 4.329000510696851;82;RHONE-ALPES;0
51;MARNE;51013;AOUGNY;49.18744695452099;3.724902432834054;49.18744695452099, 3.724902432834054;21;CHAMPAGNE-ARDENNE;0
81;TARN;81185;MONTVALEN;43.856884662944736;1.592792527870762;43.856884662944736, 1.592792527870762;73;MIDI-PYRENEES;0
06;ALPES-MARITIMES;06092;PEILLON;43.77273528978546;7.371479707296451;43.77273528978546, 7.371479707296451;93;"""PROVENCE-ALPES-COTE D'AZUR""";0
07;ARDECHE;07005;ALBA-LA-ROMAINE;44.55444391422101;4.595976951474237;44.554443914221004, 4.595976951474237;82;RHONE-ALPES;0
33;GIRONDE;33123;CEZAC;45.08551454268843;-0.431075960607922;45.08551454268843, -0.431075960607922;72;AQUITAINE;0
91;ESSONNE;91434;MORSANG-SUR-ORGE;48.65628551936926;2.350887396550697;48.65628551936926, 2.350887396550697;11;ILE-DE-FRANCE;0
51;MARNE;51218;VAL-DE-VIERE;48.819392600447024;4.745326121729545;48.819392600447024, 4.745326121729545;21;CHAMPAGNE-ARDENNE;0
10;AUBE;10060;BREVIANDES;48.25622595006746;4.107562930282071;48.25622595006746, 4.107562930282071;21;CHAMPAGNE-ARDENNE;0
46;LOT;46294;SAINT-SULPICE;44.57917606329824;1.795500436474584;44.579176063298235, 1.7955004364745841;73;MIDI-PYRENEES;0
16;CHARENTE;16339;AUGE-SAINT-MEDARD;45.85114166017749;-0.08722628555661;45.85114166017749, -0.08722628555661001;54;POITOU-CHARENTES;0
86;VIENNE;86236;SAINT-PIERRE-DE-MAILLE;46.67772130240349;0.8251851863322971;46.677721302403484, 0.8251851863322971;54;POITOU-CHARENTES;0
92;HAUTS-DE-SEINE;92044;LEVALLOIS-PERRET;48.89507167200191;2.28688268126729;48.895071672001905, 2.28688268126729;11;ILE-DE-FRANCE;0
79;DEUX-SEVRES;79303;SALLES;46.387855662081655;-0.097637464351243;46.387855662081655, -0.09763746435124301;54;POITOU-CHARENTES;0
28;EURE-ET-LOIR;28102;CLEVILLIERS;48.55107647234773;1.384363369907198;48.551076472347724, 1.384363369907198;24;CENTRE;0
23;CREUSE;23127;MAUTES;45.93619739797968;2.385233421517418;45.93619739797968, 2.385233421517418;74;LIMOUSIN;0
34;HERAULT;34290;SAINT-VINCENT-DE-BARBEYRARGUES;43.71074873077531;3.876897047951635;43.71074873077531, 3.876897047951635;91;LANGUEDOC-ROUSSILLON;0
64;PYRENEES-ATLANTIQUES;64203;DOUMY;43.44512229789409;-0.377112446292315;43.44512229789409, -0.37711244629231505;72;AQUITAINE;0
59;NORD;59625;VILLERS-PLOUICH;50.07893453549934;3.136595906230364;50.07893453549934, 3.136595906230364;31;NORD-PAS-DE-CALAIS;0
08;ARDENNES;08256;LIRY;49.30475170166336;4.64261574790326;49.30475170166336, 4.64261574790326;21;CHAMPAGNE-ARDENNE;0
10;AUBE;10280;PARS-LES-ROMILLY;48.4812645725079;3.728530008820091;48.4812645725079, 3.728530008820091;21;CHAMPAGNE-ARDENNE;0
35;ILLE-ET-VILAINE;35347;VAL-D'IZE;48.18991827985926;-1.304784384241005;48.18991827985926, -1.304784384241005;53;BRETAGNE;0
79;DEUX-SEVRES;79289;SAINT-PIERRE-DES-ECHAUBROGNES;46.97974147019584;-0.7518991726022981;46.97974147019584, -0.7518991726022981;54;POITOU-CHARENTES;0
2A;CORSE-DU-SUD;2A232;PILA-CANALE;41.7923350726546;8.898783665451898;41.7923350726546, 8.898783665451898;94;CORSE;0
77;SEINE-ET-MARNE;77390;ROISSY-EN-BRIE;48.79008554235574;2.661224157640459;48.79008554235574, 2.661224157640459;11;ILE-DE-FRANCE;0
62;PAS-DE-CALAIS;62316;ESTREE-WAMIN;50.268948499411685;2.3943782386467;50.268948499411685, 2.3943782386467;31;NORD-PAS-DE-CALAIS;0
72;SARTHE;72009;ARTHEZE;47.78943455394428;-0.110707859557491;47.78943455394428, -0.110707859557491;52;PAYS DE LA LOIRE;0
17;CHARENTE-MARITIME;17447;LE THOU;46.0868700946756;-0.937375206626398;46.0868700946756, -0.9373752066263981;54;POITOU-CHARENTES;0
42;LOIRE;42063;CHIRASSIMONT;45.91344995369139;4.282815069168276;45.91344995369139, 4.282815069168276;82;RHONE-ALPES;0
05;HAUTES-ALPES;05176;VALSERRES;44.48928429650432;6.137893935827879;44.489284296504316, 6.137893935827879;93;"""PROVENCE-ALPES-COTE D'AZUR""";0
25;DOUBS;25207;DUNG;47.506492458183125;6.745249002902936;47.506492458183125, 6.745249002902936;43;FRANCHE-COMTE;0
29;FINISTERE;29108;LANDUDEC;47.99593196698551;-4.327632430571682;47.99593196698551, -4.327632430571682;53;BRETAGNE;0
45;LOIRET;45228;NIBELLE;48.01407575028895;2.311625565763514;48.01407575028895, 2.311625565763514;24;CENTRE;0
21;"""COTE-D'OR""";21244;EGUILLY;47.30108473393399;4.499926756851448;47.30108473393399, 4.499926756851448;26;BOURGOGNE;0
44;LOIRE-ATLANTIQUE;44140;LA REGRIPPIERE;47.18513271918945;-1.194458590021953;47.18513271918945, -1.194458590021953;52;PAYS DE LA LOIRE;0
30;GARD;30021;AUBUSSARGUES;44.010015062605525;4.326043755113547;44.010015062605525, 4.326043755113547;91;LANGUEDOC-ROUSSILLON;0
71;SAONE-ET-LOIRE;71166;CUZY;46.760985286684445;4.031710981988233;46.760985286684445, 4.031710981988233;26;BOURGOGNE;0
88;VOSGES;88436;SAINT-STAIL;48.37818458660615;7.086938621175681;48.37818458660615, 7.086938621175681;41;LORRAINE;0
44;LOIRE-ATLANTIQUE;44101;LA MONTAGNE;47.18495485030621;-1.684828196302389;47.18495485030621, -1.684828196302389;52;PAYS DE LA LOIRE;0
11;AUDE;11386;TALAIRAN;43.02994094720404;2.669385931636775;43.02994094720404, 2.669385931636775;91;LANGUEDOC-ROUSSILLON;0
05;HAUTES-ALPES;05163;LE SAUZE-DU-LAC;44.485574243995984;6.323176392579911;44.485574243995984, 6.323176392579911;93;"""PROVENCE-ALPES-COTE D'AZUR""";0
76;SEINE-MARITIME;76483;OHERVILLE;49.727119712117286;0.6898479195718701;49.727119712117286, 0.6898479195718701;23;HAUTE-NORMANDIE;0
36;INDRE;36233;LA VERNELLE;47.24288142095929;1.563676857487581;47.24288142095929, 1.563676857487581;24;CENTRE;0
04;ALPES-DE-HAUTE-PROVENCE;04065;CRUIS;44.08316269910675;5.838469490918774;44.08316269910675, 5.838469490918774;93;"""PROVENCE-ALPES-COTE D'AZUR""";0
14;CALVADOS;14533;REPENTIGNY;49.19900644127546;0.042689749854522;49.19900644127546, 0.042689749854522;25;BASSE-NORMANDIE;0
86;VIENNE;86094;DIENNE;46.441439338076805;0.5374365230789411;46.441439338076805, 0.5374365230789411;54;POITOU-CHARENTES;0
61;ORNE;61367;SAINT-AUBIN-DE-COURTERAIE;48.6087873617004;0.452912112698031;48.6087873617004, 0.45291211269803106;25;BASSE-NORMANDIE;0
31;HAUTE-GARONNE;31170;ESCANECRABE;43.27165945255253;0.7572146426924361;43.271659452552534, 0.7572146426924361;73;MIDI-PYRENEES;0
54;MEURTHE-ET-MOSELLE;54253;HATRIZE;49.19648087461543;5.897888533526388;49.19648087461543, 5.897888533526388;41;LORRAINE;0
64;PYRENEES-ATLANTIQUES;64308;LALONQUETTE;43.48928555673171;-0.316695658071209;43.48928555673171, -0.31669565807120903;72;AQUITAINE;0
69;RHONE;69034;CALUIRE-ET-CUIRE;45.79740536475738;4.851248571012338;45.79740536475738, 4.851248571012338;82;RHONE-ALPES;0
14;CALVADOS;14085;BONNEVILLE-LA-LOUVET;49.273089859163534;0.341971829680798;49.273089859163534, 0.34197182968079803;25;BASSE-NORMANDIE;0
39;JURA;39279;LARNAUD;46.70681294952661;5.457827978345049;46.70681294952661, 5.457827978345049;43;FRANCHE-COMTE;0
28;EURE-ET-LOIR;28118;CROISILLES;48.69077850030822;1.499081363945319;48.69077850030822, 1.499081363945319;24;CENTRE;0
52;HAUTE-MARNE;52108;CHARMES;47.92054458935121;5.354439319104036;47.92054458935121, 5.354439319104036;21;CHAMPAGNE-ARDENNE;0
02;AISNE;02757;VADENCOURT;49.92297716131119;3.5738611884553717;49.92297716131119, 3.5738611884553713;22;PICARDIE;0
27;EURE;27386;LE MANOIR;49.31752242095289;1.19943581572808;49.31752242095289, 1.19943581572808;23;HAUTE-NORMANDIE;0
76;SEINE-MARITIME;76259;FECAMP;49.75232453061663;0.395297587433256;49.752324530616626, 0.39529758743325605;23;HAUTE-NORMANDIE;0
29;FINISTERE;29270;SAINT-URBAIN;48.396919433600274;-4.222067618042228;48.396919433600274, -4.222067618042228;53;BRETAGNE;0
55;MEUSE;55200;FROMEREVILLE-LES-VALLONS;49.16420100563411;5.293351394326565;49.16420100563411, 5.293351394326565;41;LORRAINE;0
60;OISE;60387;MARSEILLE-EN-BEAUVAISIS;49.57531958518338;1.9576501987936927;49.57531958518338, 1.9576501987936932;22;PICARDIE;0
88;VOSGES;88222;GUGNECOURT;48.24770558139065;6.622831136184934;48.24770558139065, 6.622831136184934;41;LORRAINE;0
13;BOUCHES-DU-RHONE;13108;TARASCON;43.79398853321463;4.686148492041572;43.79398853321463, 4.686148492041572;93;"""PROVENCE-ALPES-COTE D'AZUR""";0
29;FINISTERE;29214;PLOVAN;47.932574884583126;-4.36035398450742;47.932574884583126, -4.36035398450742;53;BRETAGNE;0
44;LOIRE-ATLANTIQUE;44087;MACHECOUL;46.99107845134872;-1.823456703265988;46.99107845134872, -1.823456703265988;52;PAYS DE LA LOIRE;0
11;AUDE;11162;GENERVILLE;43.21044735870066;1.9313786209994808;43.21044735870066, 1.9313786209994812;91;LANGUEDOC-ROUSSILLON;0
33;GIRONDE;33260;LUGOS;44.46893861336912;-0.9150962580314372;44.46893861336912, -0.9150962580314371;72;AQUITAINE;0
02;AISNE;02379;LE HERIE-LA-VIEVILLE;49.82226975356063;3.65376324723897;49.82226975356063, 3.65376324723897;22;PICARDIE;0
07;ARDECHE;07011;ANTRAIGUES-SUR-VOLANE;44.73931832466676;4.355175893870122;44.739318324666755, 4.355175893870122;82;RHONE-ALPES;0
71;SAONE-ET-LOIRE;71202;FONTAINES;46.85162199744159;4.780770930316335;46.85162199744159, 4.780770930316335;26;BOURGOGNE;0
03;ALLIER;03308;VERNUSSE;46.26027328384375;2.971677418469408;46.260273283843745, 2.971677418469408;83;AUVERGNE;0
50;MANCHE;50518;SAINT-MARTIN-LE-BOUILLANT;48.780033606165766;-1.159147237910342;48.780033606165766, -1.159147237910342;25;BASSE-NORMANDIE;0
50;MANCHE;50456;SAINT-CLEMENT-RANCOUDRAY;48.66896293458689;-0.890384424864563;48.66896293458689, -0.890384424864563;25;BASSE-NORMANDIE;0
59;NORD;59088;BOIS-GRENIER;50.64871291120748;2.872744352908234;50.648712911207475, 2.872744352908234;31;NORD-PAS-DE-CALAIS;0
02;AISNE;02800;VIFFORT;48.95761656007988;3.469725944017053;48.95761656007988, 3.469725944017053;22;PICARDIE;0
80;SOMME;80654;QUESNOY-LE-MONTANT;50.10630290950144;1.6876689008422492;50.106302909501444, 1.6876689008422492;22;PICARDIE;0
21;"""COTE-D'OR""";21464;NUITS-SAINT-GEORGES;47.14651839204471;4.938550041696315;47.146518392044705, 4.938550041696315;26;BOURGOGNE;0
37;INDRE-ET-LOIRE;37282;YZEURES-SUR-CREUSE;46.79028722359503;0.8762081491285141;46.79028722359503, 0.8762081491285141;24;CENTRE;0
80;SOMME;80598;NOUVION;50.21485548344141;1.780369192385963;50.21485548344141, 1.780369192385963;22;PICARDIE;0
70;HAUTE-SAONE;70489;SERVANCE;47.825728806795134;6.6859788450074085;47.825728806795134, 6.6859788450074085;43;FRANCHE-COMTE;0
58;NIEVRE;58232;SAINT-BENIN-D'AZY;46.99594278919772;3.404771783042987;46.99594278919772, 3.404771783042987;26;BOURGOGNE;0
33;GIRONDE;33460;SAINT-PEY-DE-CASTETS;44.816675630039896;-0.064078436320051;44.816675630039896, -0.064078436320051;72;AQUITAINE;0
83;VAR;83037;LA CELLE;43.38437035095488;5.9986141161090405;43.384370350954875, 5.9986141161090405;93;"""PROVENCE-ALPES-COTE D'AZUR""";0
49;MAINE-ET-LOIRE;49292;SAINT-LAMBERT-DU-LATTAY;47.30021994538289;-0.64031485321602;47.30021994538289, -0.64031485321602;52;PAYS DE LA LOIRE;0
39;JURA;39052;BIEF-DES-MAISONS;46.70385591874444;6.049676871371679;46.70385591874444, 6.049676871371679;43;FRANCHE-COMTE;0
72;SARTHE;72165;LOMBRON;48.08616525922385;0.412614616267722;48.08616525922385, 0.41261461626772206;52;PAYS DE LA LOIRE;0
81;TARN;81286;SERVIES;43.66530398237434;2.032486614906949;43.66530398237434, 2.032486614906949;73;MIDI-PYRENEES;0
63;PUY-DE-DOME;63337;SAINT-ELOY-LA-GLACIERE;45.56369816366401;3.567248643064477;45.56369816366401, 3.567248643064477;83;AUVERGNE;0
12;AVEYRON;12075;CONNAC;44.02039970405307;2.594545345971143;44.02039970405307, 2.594545345971143;73;MIDI-PYRENEES;0
22;"""COTES-D'ARMOR""";22319;SAINT-MICHEL-EN-GREVE;48.67444489262972;-3.557060294603421;48.674444892629715, -3.557060294603421;53;BRETAGNE;0
33;GIRONDE;33113;CAUVIGNAC;44.41731473272727;-0.071054875618343;44.41731473272727, -0.071054875618343;72;AQUITAINE;0
70;HAUTE-SAONE;70117;CHALONVILLARS;47.637623957451936;6.7767765523301655;47.637623957451936, 6.7767765523301655;43;FRANCHE-COMTE;0
60;OISE;60141;CHANTILLY;49.176264165400575;2.481034819136381;49.176264165400575, 2.481034819136381;22;PICARDIE;0
88;VOSGES;88292;MATTAINCOURT;48.27776831160628;6.128038779896299;48.27776831160628, 6.128038779896299;41;LORRAINE;0
16;CHARENTE;16242;NANTEUIL-EN-VALLEE;46.006102911146606;0.32369225522036;46.006102911146606, 0.32369225522036005;54;POITOU-CHARENTES;0
32;GERS;32129;ESTRAMIAC;43.835088364158175;0.849647373981803;43.835088364158175, 0.849647373981803;73;MIDI-PYRENEES;0
25;DOUBS;25589;VAUCLUSOTTE;47.27744127616746;6.734162184660267;47.27744127616746, 6.734162184660267;43;FRANCHE-COMTE;0
60;OISE;60245;FORMERIE;49.64929864070622;1.7280139170688802;49.64929864070622, 1.7280139170688802;22;PICARDIE;0
59;NORD;59175;DIMONT;50.18304064579368;4.022283772346761;50.18304064579368, 4.022283772346761;31;NORD-PAS-DE-CALAIS;0
02;AISNE;02802;LA VILLE-AUX-BOIS-LES-DIZY;49.66265729677183;3.9815208372934894;49.66265729677183, 3.9815208372934903;22;PICARDIE;0
65;HAUTES-PYRENEES;65094;BIZOUS;43.06454136893145;0.439986702814399;43.06454136893145, 0.43998670281439906;73;MIDI-PYRENEES;0
27;EURE;27321;LA HAYE-LE-COMTE;49.19643153745449;1.134126489050165;49.19643153745449, 1.134126489050165;23;HAUTE-NORMANDIE;0
19;CORREZE;19266;THALAMY;45.506806663663205;2.458549417709372;45.506806663663205, 2.458549417709372;74;LIMOUSIN;0
43;HAUTE-LOIRE;43039;LE BRIGNON;44.91563341524632;3.877415825925063;44.91563341524632, 3.877415825925063;83;AUVERGNE;0
27;EURE;27590;SAINT-PIERRE-DE-CERNIERES;48.93093064327763;0.5195308059742391;48.93093064327763, 0.5195308059742391;23;HAUTE-NORMANDIE;0
70;HAUTE-SAONE;70517;VALLEROIS-LORIOZ;47.56527766900443;6.154453872827176;47.56527766900443, 6.154453872827176;43;FRANCHE-COMTE;0
24;DORDOGNE;24261;MAUZENS-ET-MIREMONT;44.99075714965428;0.9291330810575812;44.99075714965428, 0.9291330810575811;72;AQUITAINE;0
02;AISNE;02418;LERZY;49.949925849499785;3.8813509314933192;49.949925849499785, 3.8813509314933192;22;PICARDIE;0
02;AISNE;02130;BUCILLY;49.8658103547622;4.093233699492747;49.865810354762196, 4.093233699492747;22;PICARDIE;0
12;AVEYRON;12064;LE CAYROL;44.58568339656173;2.783937021615295;44.58568339656173, 2.783937021615295;73;MIDI-PYRENEES;0
41;LOIR-ET-CHER;41226;SAINT-OUEN;47.82791285548331;1.071339321194796;47.82791285548331, 1.071339321194796;24;CENTRE;0
53;MAYENNE;53151;MERAL;47.9514671566772;-1.015494224801026;47.9514671566772, -1.015494224801026;52;PAYS DE LA LOIRE;0
60;OISE;60659;VAUDANCOURT;49.22919874686714;1.7610782442696782;49.22919874686714, 1.7610782442696782;22;PICARDIE;0
52;HAUTE-MARNE;52500;VALCOURT;48.61111288812279;4.912546836797599;48.61111288812279, 4.912546836797599;21;CHAMPAGNE-ARDENNE;0
05;HAUTES-ALPES;05144;SAINT-JACQUES-EN-VALGODEMARD;44.77406378249633;6.06964600691456;44.77406378249633, 6.06964600691456;93;"""PROVENCE-ALPES-COTE D'AZUR""";0
01;AIN;01268;MURS-ET-GELIGNIEUX;45.642001427415366;5.660396848885158;45.642001427415366, 5.660396848885158;82;RHONE-ALPES;0
14;CALVADOS;14303;GLOS;49.12478802549966;0.281330610609658;49.12478802549966, 0.281330610609658;25;BASSE-NORMANDIE;0
24;DORDOGNE;24299;MUSSIDAN;45.02967323557462;0.364777087198791;45.02967323557462, 0.36477708719879104;72;AQUITAINE;0
45;LOIRET;45225;LA NEUVILLE-SUR-ESSONNE;48.17992045277523;2.379518461945729;48.17992045277523, 2.379518461945729;24;CENTRE;0
29;FINISTERE;29212;PLOUZANE;48.37743599334204;-4.59923891902841;48.37743599334204, -4.59923891902841;53;BRETAGNE;0
36;INDRE;36116;MENETREOLS-SOUS-VATAN;47.00865288408287;1.8345748949558192;47.00865288408287, 1.8345748949558192;24;CENTRE;0
16;CHARENTE;16037;BELLON;45.31297425392669;0.116774132043058;45.31297425392669, 0.116774132043058;54;POITOU-CHARENTES;0
32;GERS;32007;ARDIZAS;43.72368388755719;0.9989700359094552;43.723683887557186, 0.9989700359094551;73;MIDI-PYRENEES;0
10;AUBE;10318;RIGNY-LA-NONNEUSE;48.4140043943029;3.648910029162132;48.4140043943029, 3.648910029162132;21;CHAMPAGNE-ARDENNE;0
2A;CORSE-DU-SUD;2A158;MELA;41.684311635266674;9.092518014654262;41.684311635266674, 9.092518014654262;94;CORSE;0
63;PUY-DE-DOME;63290;PULVERIERES;45.88219362233393;2.922289759120723;45.88219362233393, 2.922289759120723;83;AUVERGNE;0
51;MARNE;51424;PASSAVANT-EN-ARGONNE;49.02205258244382;5.001820827908276;49.02205258244382, 5.001820827908276;21;CHAMPAGNE-ARDENNE;0
45;LOIRET;45015;AUTRUY-SUR-JUINE;48.27680201654231;2.091631577884183;48.276802016542305, 2.091631577884183;24;CENTRE;0
88;VOSGES;88512;VIMENIL;48.21679708927847;6.638772209976812;48.216797089278465, 6.638772209976812;41;LORRAINE;0
12;AVEYRON;12046;CAMJAC;44.179286928591786;2.395187353682722;44.179286928591786, 2.395187353682722;73;MIDI-PYRENEES;0
21;"""COTE-D'OR""";21176;CIVRY-EN-MONTAGNE;47.28947882796939;4.606035833940361;47.28947882796939, 4.606035833940361;26;BOURGOGNE;0
09;ARIEGE;09025;AUCAZEIN;42.92089943280693;0.9662913428494152;42.92089943280693, 0.9662913428494151;73;MIDI-PYRENEES;0
33;GIRONDE;33025;BAIGNEAUX;44.723908646312616;-0.193758554002094;44.723908646312616, -0.19375855400209402;72;AQUITAINE;0
40;LANDES;40236;POYARTIN;43.68814656272876;-0.8650945261040791;43.68814656272876, -0.8650945261040791;72;AQUITAINE;0
45;LOIRET;45130;DRY;47.79160186744564;1.728263246904894;47.79160186744564, 1.728263246904894;24;CENTRE;0
59;NORD;59252;FRELINGHIEN;50.70310966297341;2.951783802625588;50.703109662973404, 2.951783802625588;31;NORD-PAS-DE-CALAIS;0
77;SEINE-ET-MARNE;77530;VOULTON;48.611639802701525;3.33976168909888;48.611639802701525, 3.33976168909888;11;ILE-DE-FRANCE;0
15;CANTAL;15263;VIRARGUES;45.12931170319055;2.898439183486632;45.129311703190545, 2.898439183486632;83;AUVERGNE;0
72;SARTHE;72186;MARESCHE;48.20558088591388;0.149447281517141;48.20558088591388, 0.149447281517141;52;PAYS DE LA LOIRE;0
25;DOUBS;25561;THORAISE;47.169790589017055;5.909800710703093;47.169790589017055, 5.909800710703093;43;FRANCHE-COMTE;0
17;CHARENTE-MARITIME;17127;COURCON;46.25506917942203;-0.795122277526154;46.25506917942203, -0.795122277526154;54;POITOU-CHARENTES;0
81;TARN;81312;VERDALLE;43.496762725459085;2.17944315604857;43.496762725459085, 2.17944315604857;73;MIDI-PYRENEES;0
30;GARD;30071;CASSAGNOLES;44.019434761712;4.126690784196517;44.019434761712, 4.126690784196517;91;LANGUEDOC-ROUSSILLON;0
51;MARNE;51193;COURTISOLS;48.97729754793125;4.519212272911267;48.977297547931244, 4.519212272911267;21;CHAMPAGNE-ARDENNE;0
38;ISERE;38379;SAINT-CLAIR-SUR-GALAURE;45.272710868900965;5.147598571271545;45.272710868900965, 5.147598571271545;82;RHONE-ALPES;0
05;HAUTES-ALPES;05164;SAVINES-LE-LAC;44.52732569917486;6.393680592566275;44.52732569917486, 6.393680592566275;93;"""PROVENCE-ALPES-COTE D'AZUR""";0
11;AUDE;11372;SALSIGNE;43.322010421084;2.356603293186056;43.322010421083995, 2.356603293186056;91;LANGUEDOC-ROUSSILLON;0
51;MARNE;51608;VERNANCOURT;48.85162152881616;4.831796936776224;48.85162152881616, 4.831796936776224;21;CHAMPAGNE-ARDENNE;0
64;PYRENEES-ATLANTIQUES;64062;ARUDY;43.10032442705339;-0.474075294490251;43.10032442705339, -0.47407529449025104;72;AQUITAINE;0
46;LOT;46056;CARAYAC;44.54134919909304;1.922748754889364;44.541349199093034, 1.922748754889364;73;MIDI-PYRENEES;0
34;HERAULT;34139;LIEURAN-LES-BEZIERS;43.412299701329786;3.230662320374478;43.412299701329786, 3.230662320374478;91;LANGUEDOC-ROUSSILLON;0
44;LOIRE-ATLANTIQUE;44070;LA HAIE-FOUASSIERE;47.16131804705038;-1.400432692305169;47.16131804705038, -1.400432692305169;52;PAYS DE LA LOIRE;0
70;HAUTE-SAONE;70436;RAINCOURT;47.85977019493228;5.887677260955728;47.85977019493228, 5.887677260955728;43;FRANCHE-COMTE;0
57;MOSELLE;57239;FREYBOUSE;48.99865016471095;6.778631142761581;48.99865016471095, 6.778631142761581;41;LORRAINE;0
63;PUY-DE-DOME;63209;MAREUGHEOL;45.48407346556965;3.161698784708651;45.484073465569644, 3.161698784708651;83;AUVERGNE;0
64;PYRENEES-ATLANTIQUES;64320;LARUNS;42.892384096185694;-0.419704380498829;42.892384096185694, -0.419704380498829;72;AQUITAINE;0
14;CALVADOS;14012;ANGERVILLE;49.24430669778336;-0.027559410303124;49.24430669778336, -0.027559410303124;25;BASSE-NORMANDIE;0
70;HAUTE-SAONE;70238;FLEUREY-LES-SAINT-LOUP;47.92369830376139;6.293300754066402;47.92369830376139, 6.293300754066402;43;FRANCHE-COMTE;0
14;CALVADOS;14177;COQUAINVILLIERS;49.202460004633856;0.197315117058291;49.202460004633856, 0.19731511705829102;25;BASSE-NORMANDIE;0
18;CHER;18102;GIVARDON;46.83317184004859;2.808221195376846;46.83317184004859, 2.808221195376846;24;CENTRE;0
60;OISE;60127;CANNY-SUR-MATZ;49.60255117788727;2.8009834065191983;49.60255117788727, 2.8009834065191983;22;PICARDIE;0
21;"""COTE-D'OR""";21488;POINCON-LES-LARREY;47.86893877115102;4.456283170140181;47.86893877115102, 4.456283170140181;26;BOURGOGNE;0
24;DORDOGNE;24518;SALON;45.02814452981622;0.774813216158531;45.02814452981622, 0.774813216158531;72;AQUITAINE;0
43;HAUTE-LOIRE;43180;SAINT-ETIENNE-DU-VIGAN;44.78925000537099;3.835466950322298;44.78925000537099, 3.835466950322298;83;AUVERGNE;0
27;EURE;27010;AMECOURT;49.376740109273904;1.733298570799941;49.376740109273904, 1.733298570799941;23;HAUTE-NORMANDIE;0
24;DORDOGNE;24076;CAMPAGNE;44.89785059087252;0.9775796663731452;44.897850590872515, 0.9775796663731451;72;AQUITAINE;0
59;NORD;59523;SAINGHIN-EN-MELANTOIS;50.58773321442673;3.163421656774062;50.58773321442673, 3.163421656774062;31;NORD-PAS-DE-CALAIS;0
72;SARTHE;72358;THORIGNE-SUR-DUE;48.02971540051163;0.5198742303607701;48.02971540051163, 0.5198742303607701;52;PAYS DE LA LOIRE;0
80;SOMME;80780;VAUDRICOURT;50.11474582785883;1.548553612737404;50.11474582785883, 1.548553612737404;22;PICARDIE;0
89;YONNE;89153;EPINEUIL;47.88128551192384;3.989350694832642;47.88128551192384, 3.989350694832642;26;BOURGOGNE;0
62;PAS-DE-CALAIS;62303;ERIN;50.43048115291211;2.21886321070995;50.43048115291211, 2.21886321070995;31;NORD-PAS-DE-CALAIS;0
45;LOIRET;45155;GIEN;47.71227944001038;2.665495502039645;47.71227944001038, 2.665495502039645;24;CENTRE;0
36;INDRE;36136;MURS;46.92540489599983;1.161998988936698;46.925404895999826, 1.161998988936698;24;CENTRE;0
88;VOSGES;88294;MAZELEY;48.24686789993791;6.343506656230279;48.24686789993791, 6.343506656230279;41;LORRAINE;0
22;"""COTES-D'ARMOR""";22318;SAINT-MICHEL-DE-PLELAN;48.46273400527918;-2.22149059682474;48.46273400527918, -2.22149059682474;53;BRETAGNE;0
38;ISERE;38050;LE BOUCHAGE;45.669492231156326;5.5227002812462125;45.669492231156326, 5.5227002812462125;82;RHONE-ALPES;0
21;"""COTE-D'OR""";21522;RENEVE;47.41090931513595;5.407650131535036;47.41090931513595, 5.407650131535036;26;BOURGOGNE;0
81;TARN;81017;ARIFAT;43.77587601624025;2.352922942304163;43.77587601624025, 2.352922942304163;73;MIDI-PYRENEES;0
05;HAUTES-ALPES;05060;FURMEYER;44.53689842088231;5.875853588287447;44.53689842088231, 5.8758535882874465;93;"""PROVENCE-ALPES-COTE D'AZUR""";0
45;LOIRET;45087;CHATILLON-SUR-LOIRE;47.572131344671845;2.735941917836608;47.572131344671845, 2.735941917836608;24;CENTRE;0
59;NORD;59419;MOUCHIN;50.51686019931669;3.286291851232898;50.51686019931669, 3.286291851232898;31;NORD-PAS-DE-CALAIS;0
51;MARNE;51285;HAUSSIMONT;48.744811914584325;4.167077877143323;48.744811914584325, 4.167077877143323;21;CHAMPAGNE-ARDENNE;0
80;SOMME;80049;AYENCOURT;49.62648651359282;2.551131030632133;49.62648651359282, 2.551131030632133;22;PICARDIE;0
78;YVELINES;78125;LA CELLE-LES-BORDES;48.64164468459117;1.944884362282771;48.64164468459117, 1.944884362282771;11;ILE-DE-FRANCE;0
36;INDRE;36228;VALENCAY;47.155843348266;1.558585408057275;47.155843348265996, 1.558585408057275;24;CENTRE;0
51;MARNE;51396;NESLE-LE-REPONS;49.04443348264476;3.716381886959708;49.04443348264476, 3.716381886959708;21;CHAMPAGNE-ARDENNE;0
76;SEINE-MARITIME;76033;AUBERVILLE-LA-RENAULT;49.685956728057256;0.379182693490335;49.685956728057256, 0.379182693490335;23;HAUTE-NORMANDIE;0
53;MAYENNE;53263;THUBOEUF;48.49587823128019;-0.453905832075609;48.49587823128019, -0.45390583207560903;52;PAYS DE LA LOIRE;0
65;HAUTES-PYRENEES;65236;JULOS;43.11905146831469;-0.002062494299526;43.11905146831469, -0.002062494299526;73;MIDI-PYRENEES;0
24;DORDOGNE;24567;VAUNAC;45.36983170980129;0.8676276643612241;45.36983170980129, 0.8676276643612241;72;AQUITAINE;0
80;SOMME;80451;IRLES;50.10271872664014;2.760362737593406;50.10271872664014, 2.760362737593406;22;PICARDIE;0
39;JURA;39027;AUGISEY;46.554838948249575;5.495662710464865;46.554838948249575, 5.495662710464865;43;FRANCHE-COMTE;0
45;LOIRET;45185;LOMBREUIL;47.942307421716976;2.627133311936738;47.942307421716976, 2.627133311936738;24;CENTRE;0
35;ILLE-ET-VILAINE;35092;CUGUEN;48.44081077733749;-1.656254239037839;48.44081077733749, -1.656254239037839;53;BRETAGNE;0
77;SEINE-ET-MARNE;77309;MONTHYON;49.01010856283538;2.832918984675358;49.010108562835384, 2.832918984675358;11;ILE-DE-FRANCE;0
48;LOZERE;48097;MOISSAC-VALLEE-FRANCAISE;44.15786014597355;3.791275214568662;44.15786014597355, 3.791275214568662;91;LANGUEDOC-ROUSSILLON;0
50;MANCHE;50369;NEGREVILLE;49.50390520565514;-1.551573521519325;49.50390520565514, -1.551573521519325;25;BASSE-NORMANDIE;0
63;PUY-DE-DOME;63246;MURAT-LE-QUAIRE;45.60386103719023;2.759005049225623;45.60386103719023, 2.759005049225623;83;AUVERGNE;0
24;DORDOGNE;24326;PEYZAC-LE-MOUSTIER;44.98222484750397;1.079921232229252;44.982224847503964, 1.079921232229252;72;AQUITAINE;0
72;SARTHE;72272;SAINTE-CEROTTE;47.901129802819945;0.682806358798521;47.901129802819945, 0.682806358798521;52;PAYS DE LA LOIRE;0
36;INDRE;36068;DUN-LE-POELIER;47.21896436060583;1.7473439973016962;47.21896436060583, 1.7473439973016962;24;CENTRE;0
26;DROME;26299;SAINTE-CROIX;44.77157357560129;5.287374555424589;44.77157357560129, 5.287374555424589;82;RHONE-ALPES;0
38;ISERE;38323;PRESSINS;45.52669056517766;5.632371872415029;45.52669056517766, 5.632371872415029;82;RHONE-ALPES;0
43;HAUTE-LOIRE;43102;GRAZAC;45.19196224759098;4.184109683448146;45.19196224759098, 4.184109683448146;83;AUVERGNE;0
57;MOSELLE;57040;AULNOIS-SUR-SEILLE;48.86193806665276;6.328245230312238;48.861938066652755, 6.328245230312238;41;LORRAINE;0
33;GIRONDE;33533;TOULENNE;44.5644281695736;-0.2752027434972;44.5644281695736, -0.27520274349720003;72;AQUITAINE;0
64;PYRENEES-ATLANTIQUES;64110;BEOST;42.98000313957981;-0.329944029271872;42.98000313957981, -0.32994402927187205;72;AQUITAINE;0
26;DROME;26179;MERCUROL;45.07148811514287;4.888795623237951;45.07148811514287, 4.888795623237951;82;RHONE-ALPES;0
14;CALVADOS;14554;SAINT-AIGNAN-DE-CRAMESNIL;49.08161693211804;-0.286022666698307;49.08161693211804, -0.286022666698307;25;BASSE-NORMANDIE;0
45;LOIRET;45139;ESTOUY;48.189615292370775;2.322166278680892;48.189615292370775, 2.322166278680892;24;CENTRE;0
19;CORREZE;19083;FEYT;45.68449029070579;2.47902463460879;45.68449029070579, 2.47902463460879;74;LIMOUSIN;0
38;ISERE;38282;OPTEVOZ;45.752441814736144;5.340437075754334;45.752441814736144, 5.340437075754334;82;RHONE-ALPES;0
23;CREUSE;23066;LE COMPAS;46.0039185768842;2.452623155401924;46.003918576884196, 2.452623155401924;74;LIMOUSIN;0
33;GIRONDE;33541;VENSAC;45.39885184226768;-1.07454435968915;45.39885184226768, -1.07454435968915;72;AQUITAINE;0
26;DROME;26310;SAINT-LAURENT-D'ONAY;45.17812150254908;5.111079744902612;45.178121502549075, 5.111079744902612;82;RHONE-ALPES;0
21;"""COTE-D'OR""";21666;VERNOT;47.49124695800827;4.963307525279713;47.49124695800827, 4.963307525279713;26;BOURGOGNE;0
31;HAUTE-GARONNE;31444;PUYSSEGUR;43.751967154558336;1.066157591283707;43.751967154558336, 1.066157591283707;73;MIDI-PYRENEES;0
62;PAS-DE-CALAIS;62147;BOIRY-SAINTE-RICTRUDE;50.20045983828369;2.746393432823519;50.20045983828369, 2.746393432823519;31;NORD-PAS-DE-CALAIS;0
30;GARD;30206;POULX;43.914598217087686;4.423947476261502;43.914598217087686, 4.423947476261502;91;LANGUEDOC-ROUSSILLON;0
37;INDRE-ET-LOIRE;37059;CHARENTILLY;47.46869720646113;0.595174138772605;47.46869720646113, 0.595174138772605;24;CENTRE;0
28;EURE-ET-LOIR;28032;BEAUVILLIERS;48.30061091633041;1.653761808602284;48.30061091633041, 1.653761808602284;24;CENTRE;0
2B;HAUTE-CORSE;2B239;POGGIO-D'OLETTA;42.65726441001654;9.358514866031706;42.65726441001654, 9.358514866031706;94;CORSE;0
76;SEINE-MARITIME;76069;BELBEUF;49.38488138476614;1.138406581508665;49.38488138476614, 1.138406581508665;23;HAUTE-NORMANDIE;0
27;EURE;27354;IVILLE;49.17694670995781;0.9263076999546512;49.176946709957804, 0.9263076999546511;23;HAUTE-NORMANDIE;0
02;AISNE;02333;FRESNES;49.55480785851303;3.370180225075292;49.55480785851303, 3.370180225075292;22;PICARDIE;0
53;MAYENNE;53218;SAINTE-GEMMES-LE-ROBERT;48.204553514122594;-0.373170787282197;48.204553514122594, -0.37317078728219705;52;PAYS DE LA LOIRE;0
57;MOSELLE;57701;VAUX;49.09321265400526;6.069112590682915;49.09321265400526, 6.069112590682915;41;LORRAINE;0
53;MAYENNE;53247;SAINT-PIERRE-LA-COUR;48.10844392960451;-1.023778985259453;48.10844392960451, -1.023778985259453;52;PAYS DE LA LOIRE;0
28;EURE-ET-LOIR;28080;CHARBONNIERES;48.18950672013588;0.944303356547974;48.18950672013588, 0.944303356547974;24;CENTRE;0
48;LOZERE;48085;LAVAL-DU-TARN;44.37361096765649;3.344605394691733;44.37361096765649, 3.344605394691733;91;LANGUEDOC-ROUSSILLON;0
10;AUBE;10204;LONGEVILLE-SUR-MOGNE;48.14686542562959;4.064390732389758;48.146865425629585, 4.064390732389758;21;CHAMPAGNE-ARDENNE;0
90;TERRITOIRE DE BELFORT;90017;BOUROGNE;47.56446506372807;6.905764757666891;47.564465063728065, 6.905764757666891;43;FRANCHE-COMTE;0
27;EURE;27608;SAINT-VICTOR-DE-CHRETIENVILLE;49.06342476206154;0.513495017506991;49.063424762061544, 0.513495017506991;23;HAUTE-NORMANDIE;0
60;OISE;60314;HETOMESNIL;49.63183090099862;2.041031309893001;49.63183090099862, 2.041031309893001;22;PICARDIE;0
42;LOIRE;42192;ROZIER-COTES-D'AUREC;45.37633462518178;4.11431789360192;45.376334625181784, 4.11431789360192;82;RHONE-ALPES;0
62;PAS-DE-CALAIS;62569;MERCK-SAINT-LIEVIN;50.636334475407374;2.107616188713991;50.636334475407374, 2.107616188713991;31;NORD-PAS-DE-CALAIS;0
67;BAS-RHIN;67074;CLEEBOURG;48.9953521897392;7.886028731261963;48.9953521897392, 7.886028731261963;42;ALSACE;0
01;AIN;01216;LHUIS;45.74441414032136;5.536020669545229;45.744414140321354, 5.536020669545229;82;RHONE-ALPES;0
64;PYRENEES-ATLANTIQUES;64238;GER;43.25409070709638;-0.059321018034302;43.25409070709638, -0.059321018034302;72;AQUITAINE;0
31;HAUTE-GARONNE;31306;LOURDE;42.98471806350907;0.658660755853482;42.98471806350907, 0.658660755853482;73;MIDI-PYRENEES;0
28;EURE-ET-LOIR;28271;MORVILLIERS;48.6490907461908;0.94674728520691;48.6490907461908, 0.9467472852069101;24;CENTRE;0
88;VOSGES;88243;HOUSSERAS;48.30808423697744;6.735403323762716;48.308084236977436, 6.735403323762716;41;LORRAINE;0
53;MAYENNE;53134;LIVET;48.1116444391705;-0.462684976774734;48.111644439170504, -0.462684976774734;52;PAYS DE LA LOIRE;0
78;YVELINES;78108;LES BREVIAIRES;48.72124106856056;1.8163948108404624;48.72124106856056, 1.8163948108404622;11;ILE-DE-FRANCE;0
90;TERRITOIRE DE BELFORT;90094;SEVENANS;47.58875500612246;6.870091547052225;47.58875500612246, 6.870091547052225;43;FRANCHE-COMTE;0
93;SEINE-SAINT-DENIS;93015;COUBRON;48.91765195551786;2.576312316520748;48.91765195551786, 2.576312316520748;11;ILE-DE-FRANCE;0
23;CREUSE;23105;LAVAVEIX-LES-MINES;46.07436346045863;2.09358271091606;46.07436346045863, 2.09358271091606;74;LIMOUSIN;0
51;MARNE;51378;MONTHELON;48.996985299216384;3.93667064031863;48.996985299216384, 3.93667064031863;21;CHAMPAGNE-ARDENNE;0
91;ESSONNE;91657;VIGNEUX-SUR-SEINE;48.70374453554935;2.427932037839302;48.70374453554935, 2.427932037839302;11;ILE-DE-FRANCE;0
23;CREUSE;23242;SAINT-SILVAIN-MONTAIGUT;46.14124854956398;1.76065637075377;46.14124854956398, 1.76065637075377;74;LIMOUSIN;0
31;HAUTE-GARONNE;31368;MONTCLAR-LAURAGAIS;43.36272843097309;1.713646390219345;43.36272843097309, 1.713646390219345;73;MIDI-PYRENEES;0
16;CHARENTE;16157;LE GRAND-MADIEU;45.94140005164034;0.447512808250423;45.94140005164034, 0.44751280825042306;54;POITOU-CHARENTES;0
03;ALLIER;03268;SAULZET;46.13772429182328;3.221348773087974;46.13772429182328, 3.221348773087974;83;AUVERGNE;0
48;LOZERE;48016;BALSIEGES;44.47547476243429;3.441269139717785;44.47547476243429, 3.441269139717785;91;LANGUEDOC-ROUSSILLON;0
64;PYRENEES-ATLANTIQUES;64002;ABERE;43.387095857594176;-0.174833109291286;43.387095857594176, -0.174833109291286;72;AQUITAINE;0
77;SEINE-ET-MARNE;77424;SAINT-MARTIN-DU-BOSCHET;48.732358899447625;3.428801465441504;48.732358899447625, 3.428801465441504;11;ILE-DE-FRANCE;0
59;NORD;59111;BROXEELE;50.827936234258615;2.321367215511826;50.827936234258615, 2.321367215511826;31;NORD-PAS-DE-CALAIS;0
30;GARD;30152;LES MAGES;44.22812903057677;4.17436325066045;44.228129030576774, 4.17436325066045;91;LANGUEDOC-ROUSSILLON;0
31;HAUTE-GARONNE;31271;LANTA;43.56151268100979;1.668029805527175;43.56151268100979, 1.668029805527175;73;MIDI-PYRENEES;0
76;SEINE-MARITIME;76562;SAINT-AUBIN-LE-CAUF;49.8678815710799;1.176424885773004;49.8678815710799, 1.176424885773004;23;HAUTE-NORMANDIE;0
39;JURA;39364;MONTROND;46.786787452380096;5.843854906650498;46.786787452380096, 5.843854906650498;43;FRANCHE-COMTE;0
82;TARN-ET-GARONNE;82161;SAINT-ETIENNE-DE-TULMONT;44.04467315403742;1.457032849829247;44.04467315403742, 1.457032849829247;73;MIDI-PYRENEES;0
50;MANCHE;50624;LA VENDELEE;49.083353284527455;-1.45799644929205;49.083353284527455, -1.45799644929205;25;BASSE-NORMANDIE;0
27;EURE;27472;PORTES;49.02518712990843;0.9482638135042252;49.02518712990843, 0.9482638135042251;23;HAUTE-NORMANDIE;0
71;SAONE-ET-LOIRE;71132;CIRY-LE-NOBLE;46.59661758453352;4.297861983096239;46.59661758453352, 4.297861983096239;26;BOURGOGNE;0
79;DEUX-SEVRES;79134;GLENAY;46.85644276696642;-0.24171978995136;46.856442766966424, -0.24171978995136;54;POITOU-CHARENTES;0
57;MOSELLE;57370;KOENIGSMACKER;49.38821724951723;6.286172865985013;49.38821724951723, 6.286172865985013;41;LORRAINE;0
15;CANTAL;15260;VIEILLEVIE;44.65197777687567;2.434717651239204;44.65197777687567, 2.434717651239204;83;AUVERGNE;0
48;LOZERE;48072;GREZES;44.5156264154292;3.343720911615391;44.5156264154292, 3.343720911615391;91;LANGUEDOC-ROUSSILLON;0
57;MOSELLE;57760;ZETTING;49.073370471978194;7.12604029604474;49.073370471978194, 7.12604029604474;41;LORRAINE;0
76;SEINE-MARITIME;76603;SAINT-MACLOU-LA-BRIERE;49.64893750918995;0.4699567505882;49.64893750918995, 0.4699567505882;23;HAUTE-NORMANDIE;0
72;SARTHE;72161;LHOMME;47.76054903409749;0.5636705081190211;47.76054903409749, 0.5636705081190211;52;PAYS DE LA LOIRE;0
04;ALPES-DE-HAUTE-PROVENCE;04013;AUBIGNOSC;44.11824495610929;5.957344849071098;44.11824495610929, 5.957344849071098;93;"""PROVENCE-ALPES-COTE D'AZUR""";0
